country,state,city,station,last_update,latitude,longitude,pollutant_id,pollutant_min,pollutant_max,pollutant_avg
india,assam,nalbari,"bata chowk, nalbari - pcba",2026-06-23 11:00:00,26.446912,91.439057,pm10,23.0,76.0,37.0
india,assam,nalbari,"bata chowk, nalbari - pcba",2026-06-23 11:00:00,26.446912,91.439057,no2,14.0,15.0,15.0
india,assam,silchar,"tarapur, silchar - pcba",2026-06-23 11:00:00,24.82827,92.79525,no2,15.0,17.0,16.0
india,assam,sivasagar,"girls college, sivasagar - pcba",2026-06-23 11:00:00,26.987634,94.636574,pm10,24.0,29.0,26.0
india,assam,sivasagar,"girls college, sivasagar - pcba",2026-06-23 11:00:00,26.987634,94.636574,ozone,19.0,65.0,35.0
india,bihar,arrah,"new dm office, arrah - bspcb",2026-06-23 11:00:00,25.5626095,84.663264,pm10,28.0,70.0,43.0
india,bihar,arrah,"new dm office, arrah - bspcb",2026-06-23 11:00:00,25.5626095,84.663264,nh3,2.0,2.0,2.0
india,bihar,arrah,"new dm office, arrah - bspcb",2026-06-23 11:00:00,25.5626095,84.663264,ozone,6.0,12.0,8.0
india,bihar,aurangabad,"gurdeo nagar, aurangabad - bspcb",2026-06-23 11:00:00,24.75746,84.366208,so2,2.0,14.0,7.0
india,bihar,bhagalpur,"dm office_kachari chowk, bhagalpur - bspcb",2026-06-23 11:00:00,25.251013,86.989001,pm10,18.0,256.0,61.0
india,bihar,bhagalpur,"dm office_kachari chowk, bhagalpur - bspcb",2026-06-23 11:00:00,25.251013,86.989001,no2,10.0,13.0,12.0
india,bihar,bhagalpur,"dm office_kachari chowk, bhagalpur - bspcb",2026-06-23 11:00:00,25.251013,86.989001,so2,14.0,38.0,24.0
india,bihar,bhagalpur,"mayaganj, bhagalpur - bspcb",2026-06-23 11:00:00,25.265194,87.012947,pm2.5,13.0,257.0,51.0
india,bihar,bhagalpur,"mayaganj, bhagalpur - bspcb",2026-06-23 11:00:00,25.265194,87.012947,no2,7.0,12.0,8.0
india,bihar,bhagalpur,"mayaganj, bhagalpur - bspcb",2026-06-23 11:00:00,25.265194,87.012947,nh3,1.0,4.0,2.0
india,bihar,bhagalpur,"mayaganj, bhagalpur - bspcb",2026-06-23 11:00:00,25.265194,87.012947,ozone,20.0,60.0,33.0
india,bihar,buxar,"charitra van, buxar - bspcb",2026-06-23 11:00:00,25.56752,83.966379,nh3,3.0,3.0,3.0
india,bihar,chhapra,"darshan nagar, chhapra - bspcb",2026-06-23 11:00:00,25.7808257,84.7446768,pm10,109.0,125.0,120.0
india,bihar,chhapra,"darshan nagar, chhapra - bspcb",2026-06-23 11:00:00,25.7808257,84.7446768,no2,2.0,3.0,2.0
india,bihar,chhapra,"darshan nagar, chhapra - bspcb",2026-06-23 11:00:00,25.7808257,84.7446768,so2,20.0,22.0,21.0
india,bihar,chhapra,"darshan nagar, chhapra - bspcb",2026-06-23 11:00:00,25.7808257,84.7446768,ozone,2.0,5.0,4.0
india,bihar,gaya,"kareemganj, gaya - bspcb",2026-06-23 11:00:00,24.792403,84.992416,ozone,30.0,83.0,43.0
india,bihar,gaya,"sfti kusdihra, gaya - bspcb",2026-06-23 11:00:00,24.762518,84.982348,co,18.0,36.0,23.0
india,bihar,hajipur,"industrial area, hajipur - bspcb",2026-06-23 11:00:00,25.697189,85.2459,nh3,15.0,24.0,21.0
india,bihar,katihar,"mirchaibari, katihar - bspcb",2026-06-23 11:00:00,25.560083,87.553265,nh3,1.0,1.0,1.0
india,andhra_pradesh,rajamahendravaram,"anand kala kshetram, rajamahendravaram - appcb",2026-06-23 11:00:00,16.9872867,81.7363176,pm10,40.0,80.0,62.0
india,andhra_pradesh,tirumala,"toll gate, tirumala - appcb",2026-06-23 11:00:00,13.67,79.35,pm2.5,5.0,23.0,12.0
india,andhra_pradesh,tirumala,"toll gate, tirumala - appcb",2026-06-23 11:00:00,13.67,79.35,pm10,7.0,155.0,78.0
india,andhra_pradesh,tirumala,"toll gate, tirumala - appcb",2026-06-23 11:00:00,13.67,79.35,nh3,2.0,3.0,3.0
india,andhra_pradesh,vijayawada,"hb colony, vijayawada - appcb",2026-06-23 11:00:00,16.536107,80.594233,co,26.0,31.0,29.0
india,andhra_pradesh,vijayawada,"hb colony, vijayawada - appcb",2026-06-23 11:00:00,16.536107,80.594233,ozone,23.0,34.0,27.0
india,andhra_pradesh,vijayawada,"kanuru, vijayawada - appcb",2026-06-23 11:00:00,16.486692,80.699436,pm2.5,53.0,82.0,59.0
india,andhra_pradesh,vijayawada,"kanuru, vijayawada - appcb",2026-06-23 11:00:00,16.486692,80.699436,so2,11.0,25.0,17.0
india,andhra_pradesh,vijayawada,"kanuru, vijayawada - appcb",2026-06-23 11:00:00,16.486692,80.699436,co,16.0,28.0,16.0
india,andhra_pradesh,vijayawada,"rajiv gandhi park, vijayawada - appcb",2026-06-23 11:00:00,16.509717,80.612222,pm10,37.0,75.0,57.0
india,bihar,motihari,"gandak colony, motihari - bspcb",2026-06-23 11:00:00,26.63086,84.90051,no2,3.0,4.0,3.0
india,bihar,motihari,"gandak colony, motihari - bspcb",2026-06-23 11:00:00,26.63086,84.90051,so2,2.0,3.0,3.0
india,bihar,munger,"town hall, munger - bspcb",2026-06-23 11:00:00,25.376776,86.471523,pm10,9.0,41.0,23.0
india,bihar,munger,"town hall, munger - bspcb",2026-06-23 11:00:00,25.376776,86.471523,so2,39.0,49.0,44.0
india,bihar,muzaffarpur,"buddha colony, muzaffarpur - bspcb",2026-06-23 11:00:00,26.11442,85.39813,so2,2.0,15.0,7.0
india,bihar,muzaffarpur,"buddha colony, muzaffarpur - bspcb",2026-06-23 11:00:00,26.11442,85.39813,ozone,28.0,87.0,41.0
india,bihar,muzaffarpur,"mit-daudpur kothi, muzaffarpur - bspcb",2026-06-23 11:00:00,26.1403345,85.3650192,pm2.5,38.0,58.0,48.0
india,bihar,muzaffarpur,"mit-daudpur kothi, muzaffarpur - bspcb",2026-06-23 11:00:00,26.1403345,85.3650192,pm10,44.0,69.0,58.0
india,bihar,patna,"drm office danapur, patna - bspcb",2026-06-23 11:00:00,25.586562,85.043586,no2,29.0,35.0,32.0
india,bihar,patna,"govt. high school shikarpur, patna - bspcb",2026-06-23 11:00:00,25.592539,85.227158,pm10,53.0,121.0,92.0
india,bihar,patna,"govt. high school shikarpur, patna - bspcb",2026-06-23 11:00:00,25.592539,85.227158,no2,12.0,12.0,12.0
india,chhattisgarh,raipur,"aiims, raipur - cecb",2026-06-23 11:00:00,21.258815,81.578979,pm10,8.0,40.0,18.0
india,chhattisgarh,raipur,"bhatagaon new isbt, raipur - cecb",2026-06-23 11:00:00,21.219665,81.630094,no2,3.0,10.0,5.0
india,chhattisgarh,raipur,"bhatagaon new isbt, raipur - cecb",2026-06-23 11:00:00,21.219665,81.630094,so2,1.0,5.0,4.0
india,chhattisgarh,raipur,"bhatagaon new isbt, raipur - cecb",2026-06-23 11:00:00,21.219665,81.630094,ozone,1.0,8.0,2.0
india,chhattisgarh,raipur,"krishak nagar, raipur - cecb",2026-06-23 11:00:00,21.237755,81.705301,pm2.5,3.0,25.0,11.0
india,chhattisgarh,raipur,"krishak nagar, raipur - cecb",2026-06-23 11:00:00,21.237755,81.705301,co,9.0,14.0,11.0
india,chhattisgarh,raipur,"siltara phase-ii, raipur - cecb",2026-06-23 11:00:00,21.371751,81.664929,pm2.5,28.0,57.0,42.0
india,chhattisgarh,raipur,"siltara phase-ii, raipur - cecb",2026-06-23 11:00:00,21.371751,81.664929,pm10,34.0,124.0,78.0
india,chhattisgarh,raipur,"siltara phase-ii, raipur - cecb",2026-06-23 11:00:00,21.371751,81.664929,no2,1.0,20.0,6.0
india,chhattisgarh,tumidih,"op jindal industrial park, tumidih - cecb",2026-06-23 11:00:00,22.06631475,83.33820077,no2,21.0,91.0,53.0
india,delhi,delhi,"alipur, delhi - dpcc",2026-06-23 11:00:00,28.815329,77.15301,no2,2.0,47.0,21.0
india,bihar,patna,"rajbansi nagar, patna - bspcb",2026-06-23 11:00:00,25.599486,85.113666,no2,29.0,33.0,30.0
india,bihar,patna,"rajbansi nagar, patna - bspcb",2026-06-23 11:00:00,25.599486,85.113666,nh3,2.0,3.0,2.0
india,bihar,patna,"samanpura, patna - bspcb",2026-06-23 11:00:00,25.596727,85.085624,ozone,14.0,41.0,20.0
india,bihar,purnia,"mariam nagar, purnia - bspcb",2026-06-23 11:00:00,25.366336,87.117468,so2,16.0,17.0,16.0
india,bihar,purnia,"mariam nagar, purnia - bspcb",2026-06-23 11:00:00,25.366336,87.117468,ozone,4.0,58.0,19.0
india,bihar,rajgir,"dangi tola, rajgir - bspcb",2026-06-23 11:00:00,25.0328,85.41948,nh3,3.0,3.0,3.0
india,bihar,rajgir,"dangi tola, rajgir - bspcb",2026-06-23 11:00:00,25.0328,85.41948,co,37.0,48.0,41.0
india,bihar,saharsa,"police line, saharsa - bspcb",2026-06-23 11:00:00,25.892357,86.590325,nh3,4.0,4.0,4.0
india,bihar,samastipur,"dm office_kasipur, samastipur - bspcb",2026-06-23 11:00:00,25.859655,85.77944,ozone,5.0,9.0,8.0
india,chandigarh,chandigarh,"sector 22, chandigarh - cpcc",2026-06-23 11:00:00,30.735567,76.775714,no2,4.0,26.0,9.0
india,andhra_pradesh,anantapur,"gulzarpet, anantapur - appcb",2026-06-23 11:00:00,14.675886,77.593027,pm2.5,45.0,71.0,52.0
india,andhra_pradesh,anantapur,"gulzarpet, anantapur - appcb",2026-06-23 11:00:00,14.675886,77.593027,ozone,30.0,50.0,32.0
india,andhra_pradesh,chittoor,"gangineni cheruvu, chittoor - appcb",2026-06-23 11:00:00,13.20488,79.097889,pm10,56.0,89.0,67.0
india,andhra_pradesh,chittoor,"gangineni cheruvu, chittoor - appcb",2026-06-23 11:00:00,13.20488,79.097889,co,13.0,26.0,24.0
india,andhra_pradesh,eluru,"district court, eluru - appcb",2026-06-23 11:00:00,16.711754,81.092095,pm2.5,33.0,60.0,42.0
india,andhra_pradesh,eluru,"district court, eluru - appcb",2026-06-23 11:00:00,16.711754,81.092095,pm10,35.0,63.0,45.0
india,andhra_pradesh,eluru,"district court, eluru - appcb",2026-06-23 11:00:00,16.711754,81.092095,co,8.0,31.0,12.0
india,andhra_pradesh,guntur,"rajendra nagar north, guntur - appcb",2026-06-23 11:00:00,16.316553,80.413302,no2,20.0,66.0,33.0
india,andhra_pradesh,guntur,"rajendra nagar north, guntur - appcb",2026-06-23 11:00:00,16.316553,80.413302,so2,11.0,28.0,14.0
india,andhra_pradesh,kadapa,"yerramukkapalli, kadapa - appcb",2026-06-23 11:00:00,14.465052,78.824187,pm10,46.0,62.0,59.0
india,chandigarh,chandigarh,"sector-25, chandigarh - cpcc",2026-06-23 11:00:00,30.751462,76.762879,no2,5.0,33.0,12.0
india,chhattisgarh,bhilai,"32bungalows, bhilai - cecb",2026-06-23 11:00:00,21.194815,81.31477,pm10,7.0,27.0,14.0
india,chhattisgarh,bhilai,"32bungalows, bhilai - cecb",2026-06-23 11:00:00,21.194815,81.31477,no2,3.0,35.0,8.0
india,chhattisgarh,bhilai,"civic center, bhilai - bhilai steel plant",2026-06-23 11:00:00,21.185571,81.343175,pm2.5,2.0,24.0,10.0
india,chhattisgarh,bhilai,"hathkhoj, bhilai - cecb",2026-06-23 11:00:00,21.224231,81.40835,pm10,13.0,68.0,38.0
india,chhattisgarh,bilaspur,"mangala, bilaspur - ntpc",2026-06-23 11:00:00,22.08815,82.13737,pm10,28.0,59.0,43.0
india,chhattisgarh,korba,"rampur, korba - cecb",2026-06-23 11:00:00,22.368195,82.746431,nh3,1.0,1.0,1.0
india,delhi,delhi,"alipur, delhi - dpcc",2026-06-23 11:00:00,28.815329,77.15301,ozone,1.0,31.0,11.0
india,delhi,delhi,"ashok vihar, delhi - dpcc",2026-06-23 11:00:00,28.695381,77.181665,no2,11.0,67.0,34.0
india,delhi,delhi,"aya nagar, delhi - iitm",2026-06-23 11:00:00,28.4706914,77.1099364,ozone,7.0,88.0,40.0
india,delhi,delhi,"bawana, delhi - dpcc",2026-06-23 11:00:00,28.7762,77.051074,pm2.5,18.0,370.0,135.0
india,delhi,delhi,"bawana, delhi - dpcc",2026-06-23 11:00:00,28.7762,77.051074,ozone,4.0,27.0,8.0
india,delhi,delhi,"crri mathura road, delhi - iitm",2026-06-23 11:00:00,28.5512005,77.2735737,pm2.5,8.0,269.0,99.0
india,delhi,delhi,"crri mathura road, delhi - iitm",2026-06-23 11:00:00,28.5512005,77.2735737,co,36.0,83.0,77.0
india,delhi,delhi,"chandni chowk, delhi - iitm",2026-06-23 11:00:00,28.656756,77.227234,pm2.5,43.0,125.0,79.0
india,assam,guwahati,"iitg, guwahati - pcba",2026-06-23 11:00:00,26.2028636,91.70046436,no2,1.0,3.0,2.0
india,assam,guwahati,"iitg, guwahati - pcba",2026-06-23 11:00:00,26.2028636,91.70046436,ozone,1.0,17.0,6.0
india,haryana,faridabad,"new industrial town, faridabad - hspcb",2026-06-23 11:00:00,28.39072,77.30059,nh3,10.0,12.0,11.0
india,haryana,faridabad,"new industrial town, faridabad - hspcb",2026-06-23 11:00:00,28.39072,77.30059,co,10.0,30.0,28.0
india,haryana,faridabad,"sector 11, faridabad - hspcb",2026-06-23 11:00:00,28.376058,77.315741,pm2.5,50.0,411.0,146.0
india,haryana,faridabad,"sector 11, faridabad - hspcb",2026-06-23 11:00:00,28.376058,77.315741,pm10,60.0,280.0,124.0
india,haryana,faridabad,"sector 11, faridabad - hspcb",2026-06-23 11:00:00,28.376058,77.315741,nh3,9.0,10.0,10.0
india,haryana,faridabad,"sector 11, faridabad - hspcb",2026-06-23 11:00:00,28.376058,77.315741,co,48.0,60.0,55.0
india,haryana,fatehabad,"huda sector, fatehabad - hspcb",2026-06-23 11:00:00,29.503664,75.467934,pm2.5,5.0,89.0,62.0
india,haryana,fatehabad,"huda sector, fatehabad - hspcb",2026-06-23 11:00:00,29.503664,75.467934,no2,18.0,20.0,19.0
india,haryana,fatehabad,"huda sector, fatehabad - hspcb",2026-06-23 11:00:00,29.503664,75.467934,co,35.0,52.0,42.0
india,haryana,fatehabad,"huda sector, fatehabad - hspcb",2026-06-23 11:00:00,29.503664,75.467934,ozone,18.0,153.0,18.0
india,haryana,gurugram,"nise gwal pahari, gurugram - iitm",2026-06-23 11:00:00,28.422681,77.148944,pm10,54.0,184.0,129.0
india,haryana,gurugram,"sector-51, gurugram - hspcb",2026-06-23 11:00:00,28.4227,77.0667,pm10,93.0,166.0,134.0
india,haryana,gurugram,"sector-51, gurugram - hspcb",2026-06-23 11:00:00,28.4227,77.0667,no2,23.0,67.0,40.0
india,haryana,gurugram,"teri gram, gurugram - hspcb",2026-06-23 11:00:00,28.4275,77.1465,pm10,83.0,230.0,134.0
india,haryana,gurugram,"teri gram, gurugram - hspcb",2026-06-23 11:00:00,28.4275,77.1465,co,12.0,44.0,40.0
india,haryana,gurugram,"teri gram, gurugram - hspcb",2026-06-23 11:00:00,28.4275,77.1465,ozone,7.0,58.0,11.0
india,haryana,gurugram,"vikas sadan, gurugram - hspcb",2026-06-23 11:00:00,28.4501238,77.0263051,pm2.5,76.0,415.0,263.0
india,haryana,gurugram,"vikas sadan, gurugram - hspcb",2026-06-23 11:00:00,28.4501238,77.0263051,pm10,97.0,442.0,209.0
india,haryana,gurugram,"vikas sadan, gurugram - hspcb",2026-06-23 11:00:00,28.4501238,77.0263051,co,28.0,104.0,47.0
india,gujarat,surat,"science center, surat - smc",2026-06-23 11:00:00,21.170046,72.795405,co,32.0,48.0,36.0
india,gujarat,vadodara,"bapunagar, vadodara - nexteng enviro",2026-06-23 11:00:00,22.320153,73.216285,nh3,2.0,3.0,2.0
india,gujarat,vadodara,"bapunagar, vadodara - nexteng enviro",2026-06-23 11:00:00,22.320153,73.216285,so2,5.0,8.0,6.0
india,gujarat,vapi,"phase-1 gidc, vapi - gpcb",2026-06-23 11:00:00,20.362421,72.918013,pm2.5,41.0,187.0,68.0
india,haryana,ambala,"patti mehar, ambala - hspcb",2026-06-23 11:00:00,30.379589,76.778328,co,9.0,48.0,15.0
india,haryana,bahadurgarh,"arya nagar, bahadurgarh - hspcb",2026-06-23 11:00:00,28.6701,76.9254,nh3,8.0,10.0,9.0
india,haryana,ballabgarh,"nathu colony, ballabgarh - hspcb",2026-06-23 11:00:00,28.3419248,77.319699,no2,19.0,21.0,20.0
india,haryana,bhiwani,"h.b. colony, bhiwani - hspcb",2026-06-23 11:00:00,28.806223,76.141105,pm2.5,148.0,266.0,170.0
india,haryana,charkhi dadri,"mini secretariat, charkhi dadri - hspcb",2026-06-23 11:00:00,28.593883,76.270653,co,8.0,25.0,14.0
india,haryana,charkhi dadri,"mini secretariat, charkhi dadri - hspcb",2026-06-23 11:00:00,28.593883,76.270653,ozone,11.0,39.0,22.0
india,haryana,dharuhera,"municipal corporation office, dharuhera -  hspcb",2026-06-23 11:00:00,28.2068,76.7997,so2,5.0,14.0,9.0
india,delhi,delhi,"imd lodhi road, delhi - iitm",2026-06-23 11:00:00,28.5918245,77.2273074,pm10,82.0,226.0,124.0
india,delhi,delhi,"jahangirpuri, delhi - dpcc",2026-06-23 11:00:00,28.73282,77.170633,no2,31.0,125.0,75.0
india,delhi,delhi,"jawaharlal nehru stadium, delhi - dpcc",2026-06-23 11:00:00,28.58028,77.233829,pm2.5,27.0,213.0,68.0
india,delhi,delhi,"jawaharlal nehru stadium, delhi - dpcc",2026-06-23 11:00:00,28.58028,77.233829,pm10,90.0,196.0,136.0
india,delhi,delhi,"jawaharlal nehru stadium, delhi - dpcc",2026-06-23 11:00:00,28.58028,77.233829,so2,22.0,39.0,30.0
india,delhi,delhi,"major dhyan chand national stadium, delhi - dpcc",2026-06-23 11:00:00,28.611281,77.237738,no2,6.0,105.0,57.0
india,delhi,delhi,"major dhyan chand national stadium, delhi - dpcc",2026-06-23 11:00:00,28.611281,77.237738,nh3,4.0,7.0,6.0
india,delhi,delhi,"major dhyan chand national stadium, delhi - dpcc",2026-06-23 11:00:00,28.611281,77.237738,so2,10.0,36.0,15.0
india,delhi,delhi,"major dhyan chand national stadium, delhi - dpcc",2026-06-23 11:00:00,28.611281,77.237738,co,4.0,63.0,23.0
india,delhi,delhi,"mandir marg, delhi - dpcc",2026-06-23 11:00:00,28.636429,77.201067,nh3,5.0,6.0,6.0
india,delhi,delhi,"mandir marg, delhi - dpcc",2026-06-23 11:00:00,28.636429,77.201067,co,16.0,60.0,47.0
india,delhi,delhi,"mundka, delhi - dpcc",2026-06-23 11:00:00,28.684678,77.076574,co,28.0,67.0,56.0
india,delhi,delhi,"nsit dwarka, delhi - cpcb",2026-06-23 11:00:00,28.60909,77.0325413,so2,9.0,23.0,14.0
india,delhi,delhi,"rohini, delhi - dpcc",2026-06-23 11:00:00,28.732528,77.11992,co,22.0,84.0,53.0
india,delhi,delhi,"rohini, delhi - dpcc",2026-06-23 11:00:00,28.732528,77.11992,ozone,3.0,29.0,8.0
india,delhi,delhi,"shadipur, delhi - cpcb",2026-06-23 11:00:00,28.6514781,77.1473105,no2,37.0,79.0,59.0
india,delhi,delhi,"shadipur, delhi - cpcb",2026-06-23 11:00:00,28.6514781,77.1473105,so2,2.0,20.0,11.0
india,delhi,delhi,"sirifort, delhi - cpcb",2026-06-23 11:00:00,28.5504249,77.2159377,pm10,107.0,201.0,138.0
india,delhi,delhi,"sirifort, delhi - cpcb",2026-06-23 11:00:00,28.5504249,77.2159377,co,2.0,39.0,31.0
india,delhi,delhi,"sirifort, delhi - cpcb",2026-06-23 11:00:00,28.5504249,77.2159377,ozone,3.0,42.0,18.0
india,delhi,delhi,"sonia vihar, delhi - dpcc",2026-06-23 11:00:00,28.710508,77.249485,pm10,80.0,246.0,151.0
india,delhi,delhi,"sonia vihar, delhi - dpcc",2026-06-23 11:00:00,28.710508,77.249485,no2,9.0,46.0,24.0
india,delhi,delhi,"sonia vihar, delhi - dpcc",2026-06-23 11:00:00,28.710508,77.249485,co,18.0,111.0,40.0
india,delhi,delhi,"talkatora garden, delhi - dpcc",2026-06-23 11:00:00,28.62181,77.1944633,co,38.0,78.0,70.0
india,delhi,delhi,"vivek vihar, delhi - dpcc",2026-06-23 11:00:00,28.672342,77.31526,no2,25.0,114.0,53.0
india,delhi,delhi,"vivek vihar, delhi - dpcc",2026-06-23 11:00:00,28.672342,77.31526,nh3,4.0,8.0,6.0
india,delhi,delhi,"wazirpur, delhi - dpcc",2026-06-23 11:00:00,28.699793,77.165453,no2,32.0,104.0,61.0
india,delhi,delhi,"wazirpur, delhi - dpcc",2026-06-23 11:00:00,28.699793,77.165453,co,32.0,69.0,57.0
india,delhi,delhi,"nsut jaffarpur, delhi - dpcc",2026-06-23 11:00:00,28.594004,76.909423,pm2.5,31.0,226.0,105.0
india,delhi,delhi,"nsut jaffarpur, delhi - dpcc",2026-06-23 11:00:00,28.594004,76.909423,pm10,72.0,155.0,119.0
india,delhi,delhi,"nsut jaffarpur, delhi - dpcc",2026-06-23 11:00:00,28.594004,76.909423,no2,1.0,45.0,20.0
india,delhi,delhi,"north campus, du, delhi - iitm",2026-06-23 11:00:00,28.6573814,77.1585447,co,16.0,74.0,54.0
india,delhi,delhi,"patparganj, delhi - dpcc",2026-06-23 11:00:00,28.623763,77.287209,pm2.5,8.0,207.0,82.0
india,delhi,delhi,"patparganj, delhi - dpcc",2026-06-23 11:00:00,28.623763,77.287209,co,30.0,64.0,40.0
india,delhi,delhi,"punjabi bagh, delhi - dpcc",2026-06-23 11:00:00,28.674045,77.131023,pm2.5,8.0,301.0,122.0
india,delhi,delhi,"punjabi bagh, delhi - dpcc",2026-06-23 11:00:00,28.674045,77.131023,no2,16.0,54.0,34.0
india,delhi,delhi,"punjabi bagh, delhi - dpcc",2026-06-23 11:00:00,28.674045,77.131023,so2,18.0,91.0,44.0
india,delhi,delhi,"punjabi bagh, delhi - dpcc",2026-06-23 11:00:00,28.674045,77.131023,ozone,12.0,67.0,33.0
india,delhi,delhi,"pusa, delhi - iitm",2026-06-23 11:00:00,28.63611,77.173332,no2,1.0,73.0,26.0
india,gujarat,ankleshwar,"gidc, ankleshwar - gpcb",2026-06-23 11:00:00,21.613267,73.010555,so2,25.0,25.0,25.0
india,gujarat,ankleshwar,"gidc, ankleshwar - gpcb",2026-06-23 11:00:00,21.613267,73.010555,ozone,8.0,52.0,13.0
india,gujarat,gandhinagar,"iiphg lekawada, gandhinagar - iitm",2026-06-23 11:00:00,23.243639,72.68994,pm10,69.0,106.0,89.0
india,gujarat,gandhinagar,"sector-10, gandhinagar - gpcb",2026-06-23 11:00:00,23.221714,72.654328,pm2.5,26.0,66.0,38.0
india,gujarat,gandhinagar,"sector-10, gandhinagar - gpcb",2026-06-23 11:00:00,23.221714,72.654328,nh3,1.0,2.0,1.0
india,gujarat,rajkot,"mavdi, rajkot - nexteng enviro",2026-06-23 11:00:00,22.248853,70.776774,no2,57.0,71.0,63.0
india,gujarat,surat,"katargam, surat - nexteng enviro",2026-06-23 11:00:00,21.217779,72.834787,pm2.5,16.0,99.0,52.0
india,gujarat,surat,"science center, surat - smc",2026-06-23 11:00:00,21.170046,72.795405,so2,14.0,17.0,15.0
india,haryana,kaithal,"rishi nagar, kaithal - hspcb",2026-06-23 11:00:00,29.8006,76.4155,pm10,30.0,111.0,75.0
india,haryana,kaithal,"rishi nagar, kaithal - hspcb",2026-06-23 11:00:00,29.8006,76.4155,nh3,5.0,6.0,6.0
india,haryana,kaithal,"rishi nagar, kaithal - hspcb",2026-06-23 11:00:00,29.8006,76.4155,so2,1.0,102.0,72.0
india,haryana,karnal,"sector-12, karnal - hspcb",2026-06-23 11:00:00,29.6953,77.0027,ozone,18.0,46.0,31.0
india,haryana,mandikhera,"general hospital, mandikhera(nuh) - hspcb",2026-06-23 11:00:00,27.9002,76.9938,co,101.0,102.0,102.0
india,haryana,manesar,"sector-2 imt, manesar - hspcb",2026-06-23 11:00:00,28.360699,76.93609,nh3,4.0,16.0,12.0
india,haryana,manesar,"sector-2 imt, manesar - hspcb",2026-06-23 11:00:00,28.360699,76.93609,so2,2.0,6.0,4.0
india,haryana,manesar,"sector-2 imt, manesar - hspcb",2026-06-23 11:00:00,28.360699,76.93609,co,7.0,24.0,17.0
india,haryana,narnaul,"shastri nagar, narnaul - hspcb",2026-06-23 11:00:00,28.060249,76.113115,nh3,6.0,9.0,7.0
india,gujarat,ahmedabad,"gyaspur, ahmedabad - iitm",2026-06-23 11:00:00,22.977134,72.553024,pm2.5,13.0,67.0,37.0
india,gujarat,ahmedabad,"gyaspur, ahmedabad - iitm",2026-06-23 11:00:00,22.977134,72.553024,nh3,2.0,5.0,4.0
india,gujarat,ahmedabad,"gyaspur, ahmedabad - iitm",2026-06-23 11:00:00,22.977134,72.553024,ozone,13.0,45.0,34.0
india,gujarat,ahmedabad,"rakhial, ahmedabad - iitm",2026-06-23 11:00:00,23.016834,72.625775,pm10,52.0,95.0,71.0
india,gujarat,ahmedabad,"rakhial, ahmedabad - iitm",2026-06-23 11:00:00,23.016834,72.625775,co,23.0,30.0,26.0
india,gujarat,ahmedabad,"sac isro bopal, ahmedabad - iitm",2026-06-23 11:00:00,23.041137,72.456691,ozone,3.0,49.0,6.0
india,gujarat,ahmedabad,"sac isro satellite, ahmedabad - iitm",2026-06-23 11:00:00,23.023389,72.515201,nh3,1.0,1.0,1.0
india,gujarat,ahmedabad,"sac isro satellite, ahmedabad - iitm",2026-06-23 11:00:00,23.023389,72.515201,so2,5.0,7.0,6.0
india,delhi,delhi,"dr. karni singh shooting range, delhi - dpcc",2026-06-23 11:00:00,28.498571,77.26484,pm10,105.0,199.0,155.0
india,delhi,delhi,"dr. karni singh shooting range, delhi - dpcc",2026-06-23 11:00:00,28.498571,77.26484,no2,10.0,78.0,39.0
india,delhi,delhi,"dr. karni singh shooting range, delhi - dpcc",2026-06-23 11:00:00,28.498571,77.26484,nh3,5.0,6.0,5.0
india,delhi,delhi,"igi airport (t3), delhi - iitm",2026-06-23 11:00:00,28.5627763,77.1180053,pm2.5,4.0,219.0,78.0
india,delhi,delhi,"igi airport (t3), delhi - iitm",2026-06-23 11:00:00,28.5627763,77.1180053,no2,28.0,81.0,53.0
india,delhi,delhi,"ignou_maidan garhi, delhi - dpcc",2026-06-23 11:00:00,28.493624,77.201159,pm10,81.0,159.0,129.0
india,delhi,delhi,"ignou_maidan garhi, delhi - dpcc",2026-06-23 11:00:00,28.493624,77.201159,so2,3.0,4.0,4.0
india,karnataka,bengaluru,"jayanagar 5th block, bengaluru - kspcb",2026-06-23 11:00:00,12.920984,77.584908,so2,20.0,31.0,24.0
india,karnataka,bengaluru,"jayanagar 5th block, bengaluru - kspcb",2026-06-23 11:00:00,12.920984,77.584908,co,4.0,14.0,9.0
india,karnataka,bengaluru,"jayanagar 5th block, bengaluru - kspcb",2026-06-23 11:00:00,12.920984,77.584908,ozone,12.0,60.0,39.0
india,karnataka,bengaluru,"jigani, bengaluru - kspcb",2026-06-23 11:00:00,12.7816279,77.6299145,pm10,36.0,51.0,43.0
india,karnataka,bengaluru,"jigani, bengaluru - kspcb",2026-06-23 11:00:00,12.7816279,77.6299145,nh3,2.0,3.0,2.0
india,karnataka,bengaluru,"silk board, bengaluru - kspcb",2026-06-23 11:00:00,12.917348,77.622813,pm2.5,6.0,28.0,18.0
india,karnataka,bengaluru,"silk board, bengaluru - kspcb",2026-06-23 11:00:00,12.917348,77.622813,pm10,28.0,108.0,69.0
india,karnataka,bengaluru,"silk board, bengaluru - kspcb",2026-06-23 11:00:00,12.917348,77.622813,co,20.0,44.0,22.0
india,karnataka,bengaluru,"silk board, bengaluru - kspcb",2026-06-23 11:00:00,12.917348,77.622813,ozone,7.0,28.0,10.0
india,karnataka,chamarajanagar,"urban, chamarajanagar - kspcb",2026-06-23 11:00:00,11.55358,76.55521,pm2.5,17.0,49.0,31.0
india,karnataka,chamarajanagar,"urban, chamarajanagar - kspcb",2026-06-23 11:00:00,11.55358,76.55521,ozone,16.0,38.0,23.0
india,karnataka,chikkaballapur,"chikkaballapur rural, chikkaballapur - kspcb",2026-06-23 11:00:00,13.428828,77.731418,pm2.5,6.0,25.0,15.0
india,karnataka,chikkaballapur,"chikkaballapur rural, chikkaballapur - kspcb",2026-06-23 11:00:00,13.428828,77.731418,so2,14.0,22.0,16.0
india,karnataka,chikkamagaluru,"kalyana nagara, chikkamagaluru - kspcb",2026-06-23 11:00:00,13.328028,75.797056,no2,15.0,36.0,24.0
india,karnataka,chikkamagaluru,"kalyana nagara, chikkamagaluru - kspcb",2026-06-23 11:00:00,13.328028,75.797056,ozone,11.0,51.0,17.0
india,karnataka,dharwad,"kalabhavan, dharwad - kspcb",2026-06-23 11:00:00,15.459706,75.008381,co,27.0,48.0,34.0
india,madhya pradesh,indore,"maguda nagar, indore - imc",2026-06-23 11:00:00,22.7524,75.8872,ozone,11.0,14.0,12.0
india,madhya pradesh,indore,"regional park, indore - imc",2026-06-23 11:00:00,22.678,75.8559,no2,26.0,52.0,31.0
india,madhya pradesh,jabalpur,"govindh bhavan colony, jabalpur - jmc",2026-06-23 11:00:00,23.163174,79.973061,pm10,23.0,86.0,34.0
india,madhya pradesh,jabalpur,"govindh bhavan colony, jabalpur - jmc",2026-06-23 11:00:00,23.163174,79.973061,nh3,1.0,11.0,3.0
india,madhya pradesh,jabalpur,"govindh bhavan colony, jabalpur - jmc",2026-06-23 11:00:00,23.163174,79.973061,so2,1.0,12.0,5.0
india,madhya pradesh,jabalpur,"govindh bhavan colony, jabalpur - jmc",2026-06-23 11:00:00,23.163174,79.973061,ozone,1.0,24.0,5.0
india,madhya pradesh,jabalpur,"gupteshwar, jabalpur - jmc",2026-06-23 11:00:00,23.142888,79.916147,pm2.5,30.0,95.0,61.0
india,madhya pradesh,jabalpur,"gupteshwar, jabalpur - jmc",2026-06-23 11:00:00,23.142888,79.916147,pm10,29.0,163.0,85.0
india,madhya pradesh,jabalpur,"gupteshwar, jabalpur - jmc",2026-06-23 11:00:00,23.142888,79.916147,nh3,2.0,2.0,2.0
india,madhya pradesh,jabalpur,"gupteshwar, jabalpur - jmc",2026-06-23 11:00:00,23.142888,79.916147,so2,12.0,17.0,15.0
india,madhya pradesh,jabalpur,"gupteshwar, jabalpur - jmc",2026-06-23 11:00:00,23.142888,79.916147,ozone,15.0,54.0,30.0
india,madhya pradesh,jabalpur,"marhatal, jabalpur - mppcb",2026-06-23 11:00:00,23.168606,79.932247,pm2.5,18.0,44.0,32.0
india,madhya pradesh,jabalpur,"marhatal, jabalpur - mppcb",2026-06-23 11:00:00,23.168606,79.932247,ozone,34.0,123.0,54.0
india,madhya pradesh,jabalpur,"suhagi, jabalpur - jmc",2026-06-23 11:00:00,23.218135,79.95777,no2,73.0,78.0,74.0
india,madhya pradesh,jabalpur,"suhagi, jabalpur - jmc",2026-06-23 11:00:00,23.218135,79.95777,so2,3.0,9.0,6.0
india,madhya pradesh,katni,"gole bazar, katni - mppcb",2026-06-23 11:00:00,23.50016,80.23284,co,16.0,42.0,26.0
india,madhya pradesh,maihar,"sahilara, maihar - kjs cements",2026-06-23 11:00:00,24.2613009,80.7231783,pm2.5,5.0,50.0,26.0
india,madhya pradesh,maihar,"sahilara, maihar - kjs cements",2026-06-23 11:00:00,24.2613009,80.7231783,co,14.0,22.0,17.0
india,haryana,palwal,"shyam nagar, palwal - hspcb",2026-06-23 11:00:00,28.1485564,77.3320667,ozone,10.0,10.0,10.0
india,haryana,panchgaon,"amity university, panchgaon - iitm",2026-06-23 11:00:00,28.3153,76.9143,pm2.5,70.0,156.0,92.0
india,haryana,panchgaon,"amity university, panchgaon - iitm",2026-06-23 11:00:00,28.3153,76.9143,so2,6.0,25.0,14.0
india,haryana,panchkula,"sector-6, panchkula - hspcb",2026-06-23 11:00:00,30.7057778,76.8531805555555,no2,24.0,27.0,25.0
india,haryana,panipat,"sector-18, panipat - hspcb",2026-06-23 11:00:00,29.432304,76.972765,nh3,2.0,4.0,3.0
india,haryana,panipat,"sector-18, panipat - hspcb",2026-06-23 11:00:00,29.432304,76.972765,so2,19.0,27.0,22.0
india,haryana,rohtak,"md university, rohtak - hspcb",2026-06-23 11:00:00,28.52123,76.37138,co,27.0,54.0,42.0
india,haryana,sonipat,"murthal, sonipat - hspcb",2026-06-23 11:00:00,29.0272,77.0621,so2,15.0,31.0,23.0
india,haryana,sonipat,"murthal, sonipat - hspcb",2026-06-23 11:00:00,29.0272,77.0621,ozone,17.0,87.0,32.0
india,haryana,yamuna nagar,"gobind pura, yamuna nagar - hspcb",2026-06-23 11:00:00,30.1480566,77.2893471,pm2.5,24.0,62.0,36.0
india,haryana,yamuna nagar,"gobind pura, yamuna nagar - hspcb",2026-06-23 11:00:00,30.1480566,77.2893471,pm10,29.0,75.0,43.0
india,himachal pradesh,baddi,"himuda complex phase-1, baddi - hppcb",2026-06-23 11:00:00,30.943887,76.801991,pm2.5,25.0,220.0,87.0
india,himachal pradesh,baddi,"himuda complex phase-1, baddi - hppcb",2026-06-23 11:00:00,30.943887,76.801991,so2,15.0,47.0,19.0
india,jammu_and_kashmir,pampore,"khrew, pampore - jkpcc",2026-06-23 11:00:00,34.031606,75.009712,so2,4.0,5.0,4.0
india,jharkhand,dhanbad,"sardar patel nagar, dhanbad - jspcb",2026-06-23 11:00:00,23.80569,86.44268,no2,92.0,125.0,100.0
india,jharkhand,jorapokhar,"tata stadium, jorapokhar - jspcb",2026-06-23 11:00:00,23.707909,86.41467,pm10,32.0,93.0,69.0
india,jharkhand,jorapokhar,"tata stadium, jorapokhar - jspcb",2026-06-23 11:00:00,23.707909,86.41467,no2,8.0,8.0,8.0
india,jharkhand,jorapokhar,"tata stadium, jorapokhar - jspcb",2026-06-23 11:00:00,23.707909,86.41467,nh3,3.0,3.0,3.0
india,jharkhand,jorapokhar,"tata stadium, jorapokhar - jspcb",2026-06-23 11:00:00,23.707909,86.41467,co,38.0,40.0,39.0
india,karnataka,bagalkot,"vidayagiri, bagalkot - kspcb",2026-06-23 11:00:00,16.172806,75.659694,so2,10.0,10.0,10.0
india,karnataka,bagalkot,"vidayagiri, bagalkot - kspcb",2026-06-23 11:00:00,16.172806,75.659694,co,12.0,38.0,23.0
india,karnataka,bengaluru,"bwssb kadabesanahalli, bengaluru - cpcb",2026-06-23 11:00:00,12.9352049,77.6814488,pm10,54.0,55.0,54.0
india,karnataka,bengaluru,"bwssb kadabesanahalli, bengaluru - cpcb",2026-06-23 11:00:00,12.9352049,77.6814488,so2,6.0,6.0,6.0
india,karnataka,bengaluru,"bapuji nagar, bengaluru - kspcb",2026-06-23 11:00:00,12.951913,77.539784,pm10,18.0,48.0,31.0
india,karnataka,bengaluru,"city railway station, bengaluru - kspcb",2026-06-23 11:00:00,12.9756843,77.5660749,pm10,106.0,109.0,108.0
india,karnataka,bengaluru,"city railway station, bengaluru - kspcb",2026-06-23 11:00:00,12.9756843,77.5660749,co,57.0,66.0,60.0
india,karnataka,bengaluru,"hebbal, bengaluru - kspcb",2026-06-23 11:00:00,13.029152,77.585901,no2,18.0,24.0,20.0
india,karnataka,gadag,"panchal nagar, gadag - kspcb",2026-06-23 11:00:00,15.411456,75.638133,so2,22.0,37.0,30.0
india,karnataka,gadag,"panchal nagar, gadag - kspcb",2026-06-23 11:00:00,15.411456,75.638133,ozone,18.0,18.0,18.0
india,karnataka,hubballi,"lingaraj nagar, hubballi - kspcb",2026-06-23 11:00:00,15.3714823,75.1160168,pm10,49.0,55.0,51.0
india,karnataka,hubballi,"lingaraj nagar, hubballi - kspcb",2026-06-23 11:00:00,15.3714823,75.1160168,ozone,21.0,25.0,24.0
india,karnataka,mangalore,"kadri, mangalore - kspcb",2026-06-23 11:00:00,12.88925,74.853,nh3,1.0,4.0,1.0
india,karnataka,mysuru,"hebbal 1st stage, mysuru - kspcb",2026-06-23 11:00:00,12.21041,76.37376,so2,2.0,7.0,4.0
india,karnataka,shivamogga,"vinoba nagara, shivamogga - kspcb",2026-06-23 11:00:00,13.94,75.555917,co,10.0,36.0,22.0
india,karnataka,yadgir,"collector office, yadgir - kspcb",2026-06-23 11:00:00,16.7602,77.1428,no2,21.0,119.0,28.0
india,karnataka,yadgir,"collector office, yadgir - kspcb",2026-06-23 11:00:00,16.7602,77.1428,ozone,16.0,28.0,25.0
india,kerala,thiruvananthapuram,"kariavattom, thiruvananthapuram - kerala pcb",2026-06-23 11:00:00,8.5637,76.8865,no2,6.0,7.0,6.0
india,kerala,thiruvananthapuram,"plammoodu, thiruvananthapuram - kerala pcb",2026-06-23 11:00:00,8.5149093,76.9435879,pm2.5,2.0,15.0,8.0
india,kerala,thrissur,"corporation ground, thrissur - kerala pcb",2026-06-23 11:00:00,10.5324,76.2159,co,24.0,44.0,37.0
india,madhya pradesh,bhopal,"paryavaran parisar, bhopal - mppcb",2026-06-23 11:00:00,23.210494,77.425409,nh3,4.0,6.0,5.0
india,maharashtra,ahmednagar,"tarakpur, ahmednagar - mpcb",2026-06-23 11:00:00,19.10122,74.73339,pm2.5,6.0,31.0,14.0
india,maharashtra,ahmednagar,"tarakpur, ahmednagar - mpcb",2026-06-23 11:00:00,19.10122,74.73339,nh3,3.0,10.0,6.0
india,maharashtra,ahmednagar,"tarakpur, ahmednagar - mpcb",2026-06-23 11:00:00,19.10122,74.73339,so2,2.0,15.0,8.0
india,maharashtra,akola,"ramdaspeth, akola - mpcb",2026-06-23 11:00:00,20.719516,77.000253,no2,5.0,21.0,9.0
india,maharashtra,ambernath,"chinchpada, ambernath - mpcb",2026-06-23 11:00:00,19.215784,73.199781,so2,1.0,9.0,5.0
india,maharashtra,ambernath,"chinchpada, ambernath - mpcb",2026-06-23 11:00:00,19.215784,73.199781,ozone,1.0,7.0,3.0
india,maharashtra,aurangabad,"more chowk waluj, aurangabad - mpcb",2026-06-23 11:00:00,19.8389439,75.244448,co,1.0,120.0,74.0
india,maharashtra,aurangabad,"rachnakar colony, aurangabad - mpcb",2026-06-23 11:00:00,19.863756,75.321188,no2,11.0,26.0,16.0
india,maharashtra,badlapur,"katrap, badlapur - mpcb",2026-06-23 11:00:00,19.16485,73.23409,pm2.5,27.0,113.0,51.0
india,maharashtra,badlapur,"katrap, badlapur - mpcb",2026-06-23 11:00:00,19.16485,73.23409,nh3,4.0,7.0,6.0
india,madhya pradesh,bhopal,"t t nagar, bhopal - mppcb",2026-06-23 11:00:00,23.233584,77.400574,so2,11.0,28.0,20.0
india,madhya pradesh,damoh,"shrivastav colony, damoh - mppcb",2026-06-23 11:00:00,23.81748678,79.446246,co,3.0,10.0,4.0
india,madhya pradesh,gwalior,"city center, gwalior - mppcb",2026-06-23 11:00:00,26.203442,78.193251,pm2.5,22.0,52.0,36.0
india,madhya pradesh,gwalior,"city center, gwalior - mppcb",2026-06-23 11:00:00,26.203442,78.193251,ozone,62.0,95.0,80.0
india,madhya pradesh,gwalior,"deen dayal nagar, gwalior - mppcb",2026-06-23 11:00:00,26.259242,78.216432,so2,3.0,18.0,9.0
india,madhya pradesh,gwalior,"deen dayal nagar, gwalior - mppcb",2026-06-23 11:00:00,26.259242,78.216432,co,12.0,45.0,14.0
india,madhya pradesh,satna,"bandhavgar colony, satna - birla cement",2026-06-23 11:00:00,24.58434363,80.8549414,pm10,70.0,71.0,70.0
india,madhya pradesh,singrauli,"suryakiran bhawan ncl, singrauli - mppcb",2026-06-23 11:00:00,24.10897,82.64558,pm2.5,25.0,109.0,52.0
india,maharashtra,beed,"bir, beed - mpcb",2026-06-23 11:00:00,18.988474,75.753873,ozone,11.0,22.0,13.0
india,maharashtra,belapur,"cbd belapur, belapur - mpcb",2026-06-23 11:00:00,19.0243902,73.0406721,no2,16.0,34.0,23.0
india,maharashtra,bhiwandi,"gokul nagar, bhiwandi - mpcb",2026-06-23 11:00:00,19.309073,73.057223,pm10,43.0,76.0,56.0
india,maharashtra,bhiwandi,"gokul nagar, bhiwandi - mpcb",2026-06-23 11:00:00,19.309073,73.057223,nh3,4.0,6.0,5.0
india,maharashtra,bhiwandi,"gokul nagar, bhiwandi - mpcb",2026-06-23 11:00:00,19.309073,73.057223,ozone,13.0,65.0,23.0
india,maharashtra,boisar,"khaira, boisar - mpcb",2026-06-23 11:00:00,19.786089,72.757971,pm2.5,18.0,46.0,32.0
india,maharashtra,chandrapur,"chauhan colony, chandrapur - mpcb",2026-06-23 11:00:00,19.9629,79.298714,pm10,6.0,70.0,35.0
india,maharashtra,chandrapur,"chauhan colony, chandrapur - mpcb",2026-06-23 11:00:00,19.9629,79.298714,so2,4.0,10.0,7.0
india,maharashtra,chandrapur,"midc khutala, chandrapur - mpcb",2026-06-23 11:00:00,19.9775302,79.2337086,pm2.5,29.0,46.0,34.0
india,maharashtra,chandrapur,"midc khutala, chandrapur - mpcb",2026-06-23 11:00:00,19.9775302,79.2337086,pm10,22.0,105.0,49.0
india,maharashtra,chandrapur,"midc khutala, chandrapur - mpcb",2026-06-23 11:00:00,19.9775302,79.2337086,co,36.0,42.0,40.0
india,maharashtra,chandrapur,"midc khutala, chandrapur - mpcb",2026-06-23 11:00:00,19.9775302,79.2337086,ozone,10.0,94.0,18.0
india,maharashtra,dhule,"deopur, dhule - mpcb",2026-06-23 11:00:00,20.918946,74.776388,ozone,30.0,77.0,71.0
india,maharashtra,hingoli,"ashta vinayak nagar, hingoli - mpcb",2026-06-23 11:00:00,19.710842,77.151824,nh3,1.0,4.0,2.0
india,maharashtra,hingoli,"ashta vinayak nagar, hingoli - mpcb",2026-06-23 11:00:00,19.710842,77.151824,co,8.0,48.0,11.0
india,maharashtra,jalgaon,"prabhat colony, jalgaon - mpcb",2026-06-23 11:00:00,21.001264,75.565602,pm2.5,14.0,51.0,32.0
india,maharashtra,jalgaon,"prabhat colony, jalgaon - mpcb",2026-06-23 11:00:00,21.001264,75.565602,co,18.0,51.0,35.0
india,maharashtra,jalna,"old midc, jalna - mpcb",2026-06-23 11:00:00,19.854616,75.905894,pm10,12.0,101.0,34.0
india,maharashtra,jalna,"old midc, jalna - mpcb",2026-06-23 11:00:00,19.854616,75.905894,nh3,3.0,5.0,4.0
india,maharashtra,jalna,"old midc, jalna - mpcb",2026-06-23 11:00:00,19.854616,75.905894,so2,8.0,10.0,9.0
india,maharashtra,jalna,"old midc, jalna - mpcb",2026-06-23 11:00:00,19.854616,75.905894,ozone,15.0,65.0,20.0
india,maharashtra,kalyan,"pimpleshwar mandir, kalyan - mpcb",2026-06-23 11:00:00,19.192056,72.9585188,pm2.5,14.0,80.0,39.0
india,maharashtra,kolhapur,"shivaji university, kolhapur - mpcb",2026-06-23 11:00:00,16.6870449,74.2505872,pm10,11.0,49.0,22.0
india,maharashtra,kolhapur,"shivaji university, kolhapur - mpcb",2026-06-23 11:00:00,16.6870449,74.2505872,co,4.0,22.0,9.0
india,maharashtra,kolhapur,"sinchan bhavan, kolhapur - mpcb",2026-06-23 11:00:00,16.7143745,74.2426398,so2,1.0,3.0,2.0
india,maharashtra,latur,"sawe wadi, latur - mpcb",2026-06-23 11:00:00,18.39963,76.57452,pm10,9.0,44.0,24.0
india,maharashtra,mahad,"kamble tarf birwadi, mahad - mpcb",2026-06-23 11:00:00,18.1023399,73.4783687,nh3,3.0,8.0,5.0
india,maharashtra,mahad,"kamble tarf birwadi, mahad - mpcb",2026-06-23 11:00:00,18.1023399,73.4783687,ozone,13.0,71.0,25.0
india,maharashtra,malegaon,"mahesh nagar, malegaon - mpcb",2026-06-23 11:00:00,20.555712,74.529236,pm10,30.0,249.0,55.0
india,maharashtra,mira-bhayandar,"bhayandar west, mira-bhayandar - mpcb",2026-06-23 11:00:00,19.296481,72.840923,ozone,1.0,12.0,4.0
india,maharashtra,mumbai,"bandra kurla complex, mumbai - iitm",2026-06-23 11:00:00,19.053536,72.84643,ozone,8.0,13.0,9.0
india,maharashtra,mumbai,"bandra kurla complex, mumbai - mpcb",2026-06-23 11:00:00,19.065931,72.862131,pm2.5,16.0,36.0,24.0
india,maharashtra,mumbai,"bandra kurla complex, mumbai - mpcb",2026-06-23 11:00:00,19.065931,72.862131,co,44.0,46.0,45.0
india,maharashtra,mumbai,"borivali east, mumbai - iitm",2026-06-23 11:00:00,19.23241,72.86895,pm10,11.0,43.0,28.0
india,maharashtra,nashik,"gangapur road, nashik - mpcb",2026-06-23 11:00:00,20.0073285,73.7762427,nh3,3.0,3.0,3.0
india,maharashtra,nashik,"gangapur road, nashik - mpcb",2026-06-23 11:00:00,20.0073285,73.7762427,so2,1.0,7.0,4.0
india,maharashtra,nashik,"hirawadi, nashik - mpcb",2026-06-23 11:00:00,20.021503,73.813844,ozone,8.0,25.0,14.0
india,maharashtra,nashik,"midc ambad, nashik - mpcb",2026-06-23 11:00:00,19.95022,73.73148,nh3,3.0,4.0,4.0
india,maharashtra,navi mumbai,"kopripada-vashi, navi mumbai - mpcb",2026-06-23 11:00:00,19.090337,73.014232,so2,12.0,13.0,13.0
india,maharashtra,navi mumbai,"nerul, navi mumbai - mpcb",2026-06-23 11:00:00,19.008751,73.01662,pm2.5,1.0,15.0,7.0
india,maharashtra,navi mumbai,"sanpada, navi mumbai - mpcb",2026-06-23 11:00:00,19.0575752,73.0151367,nh3,1.0,4.0,2.0
india,maharashtra,navi mumbai,"sanpada, navi mumbai - mpcb",2026-06-23 11:00:00,19.0575752,73.0151367,so2,6.0,6.0,6.0
india,maharashtra,navi mumbai,"sanpada, navi mumbai - mpcb",2026-06-23 11:00:00,19.0575752,73.0151367,co,10.0,30.0,17.0
india,maharashtra,navi mumbai,"tondare-taloja, navi mumbai - mpcb",2026-06-23 11:00:00,19.063,73.1209,pm2.5,19.0,56.0,30.0
india,maharashtra,parbhani,"masoom colony, parbhani - mpcb",2026-06-23 11:00:00,19.265594,76.761463,pm2.5,7.0,26.0,14.0
india,maharashtra,parbhani,"masoom colony, parbhani - mpcb",2026-06-23 11:00:00,19.265594,76.761463,pm10,10.0,38.0,20.0
india,maharashtra,mumbai,"khindipada-bhandup west, mumbai - iitm",2026-06-23 11:00:00,19.1653323,72.922099,so2,6.0,22.0,13.0
india,maharashtra,mumbai,"kurla, mumbai - mpcb",2026-06-23 11:00:00,19.0863,72.8888,nh3,2.0,2.0,2.0
india,maharashtra,mumbai,"kurla, mumbai - mpcb",2026-06-23 11:00:00,19.0863,72.8888,so2,29.0,29.0,29.0
india,maharashtra,mumbai,"malad west, mumbai - iitm",2026-06-23 11:00:00,19.19709,72.82204,pm2.5,6.0,43.0,18.0
india,maharashtra,mumbai,"mazgaon, mumbai - iitm",2026-06-23 11:00:00,18.96702,72.84214,pm2.5,18.0,31.0,22.0
india,maharashtra,mumbai,"mindspace-malad west, mumbai - mpcb",2026-06-23 11:00:00,19.1878657,72.8304069,pm2.5,17.0,18.0,17.0
india,maharashtra,mumbai,"mindspace-malad west, mumbai - mpcb",2026-06-23 11:00:00,19.1878657,72.8304069,no2,12.0,14.0,13.0
india,maharashtra,mumbai,"mulund west, mumbai - mpcb",2026-06-23 11:00:00,19.175,72.9419,pm2.5,10.0,32.0,16.0
india,maharashtra,mumbai,"navy nagar-colaba, mumbai - iitm",2026-06-23 11:00:00,18.897756,72.81332,no2,55.0,78.0,61.0
india,maharashtra,mumbai,"sewri, mumbai - bmc",2026-06-23 11:00:00,19.000084,72.85673,co,14.0,30.0,19.0
india,maharashtra,mumbai,"shivaji nagar, mumbai - bmc",2026-06-23 11:00:00,19.060498,72.923356,so2,1.0,20.0,13.0
india,maharashtra,pune,"hadapsar, pune - iitm",2026-06-23 11:00:00,18.501793,73.927532,ozone,8.0,30.0,15.0
india,maharashtra,pune,"katraj dairy, pune - mpcb",2026-06-23 11:00:00,18.45445,73.854155,pm2.5,8.0,23.0,14.0
india,maharashtra,pune,"katraj dairy, pune - mpcb",2026-06-23 11:00:00,18.45445,73.854155,co,2.0,36.0,5.0
india,maharashtra,pune,"mhada colony, pune - iitm",2026-06-23 11:00:00,18.57304,73.927715,pm2.5,5.0,26.0,16.0
india,maharashtra,pune,"revenue colony-shivajinagar, pune - iitm",2026-06-23 11:00:00,18.530085,73.849598,so2,8.0,29.0,15.0
india,maharashtra,pune,"savitribai phule pune university, pune - mpcb",2026-06-23 11:00:00,18.547056,73.826908,co,27.0,32.0,29.0
india,maharashtra,solapur,"ratandeep housing society, solapur - mpcb",2026-06-23 11:00:00,17.65439,75.90649,pm2.5,16.0,47.0,24.0
india,maharashtra,solapur,"ratandeep housing society, solapur - mpcb",2026-06-23 11:00:00,17.65439,75.90649,nh3,2.0,6.0,4.0
india,maharashtra,solapur,"ratandeep housing society, solapur - mpcb",2026-06-23 11:00:00,17.65439,75.90649,co,4.0,30.0,11.0
india,maharashtra,thane,"kasarvadavali, thane - mpcb",2026-06-23 11:00:00,19.26777,72.97182,so2,1.0,2.0,2.0
india,maharashtra,thane,"kasarvadavali, thane - mpcb",2026-06-23 11:00:00,19.26777,72.97182,co,4.0,22.0,14.0
india,maharashtra,mumbai,"siddharth nagar-worli, mumbai - iitm",2026-06-23 11:00:00,19.000083,72.813993,pm10,26.0,50.0,35.0
india,maharashtra,mumbai,"worli, mumbai -mpcb",2026-06-23 11:00:00,18.994218,72.8158167,ozone,6.0,21.0,12.0
india,maharashtra,nagpur,"mahal, nagpur - mpcb",2026-06-23 11:00:00,21.14472,79.107595,pm10,15.0,94.0,53.0
india,maharashtra,nagpur,"mahal, nagpur - mpcb",2026-06-23 11:00:00,21.14472,79.107595,ozone,15.0,68.0,21.0
india,maharashtra,nagpur,"opp gpo civil lines, nagpur - mpcb",2026-06-23 11:00:00,21.152875,79.0517531,nh3,5.0,5.0,5.0
india,maharashtra,nanded,"sneh nagar, nanded - mpcb",2026-06-23 11:00:00,19.173852,77.296291,pm10,7.0,36.0,24.0
india,maharashtra,nanded,"sneh nagar, nanded - mpcb",2026-06-23 11:00:00,19.173852,77.296291,so2,11.0,13.0,12.0
india,maharashtra,nanded,"sneh nagar, nanded - mpcb",2026-06-23 11:00:00,19.173852,77.296291,co,19.0,27.0,22.0
india,maharashtra,nashik,"gangapur road, nashik - mpcb",2026-06-23 11:00:00,20.0073285,73.7762427,no2,5.0,5.0,5.0
india,maharashtra,mumbai,"chakala-andheri east, mumbai - iitm",2026-06-23 11:00:00,19.11074,72.86084,nh3,5.0,8.0,6.0
india,maharashtra,mumbai,"chakala-andheri east, mumbai - iitm",2026-06-23 11:00:00,19.11074,72.86084,so2,4.0,21.0,15.0
india,maharashtra,mumbai,"deonar, mumbai - iitm",2026-06-23 11:00:00,19.04946,72.923,pm2.5,14.0,41.0,22.0
india,maharashtra,mumbai,"deonar, mumbai - iitm",2026-06-23 11:00:00,19.04946,72.923,no2,6.0,17.0,10.0
india,maharashtra,mumbai,"deonar, mumbai - iitm",2026-06-23 11:00:00,19.04946,72.923,nh3,7.0,8.0,8.0
india,maharashtra,mumbai,"deonar, mumbai - iitm",2026-06-23 11:00:00,19.04946,72.923,so2,8.0,9.0,8.0
india,maharashtra,mumbai,"deonar, mumbai - iitm",2026-06-23 11:00:00,19.04946,72.923,ozone,1.0,18.0,3.0
india,maharashtra,mumbai,"ghatkopar, mumbai - bmc",2026-06-23 11:00:00,19.083694,72.920967,no2,4.0,44.0,25.0
india,maharashtra,mumbai,"ghatkopar, mumbai - bmc",2026-06-23 11:00:00,19.083694,72.920967,co,20.0,46.0,33.0
india,maharashtra,mumbai,"ghatkopar, mumbai - bmc",2026-06-23 11:00:00,19.083694,72.920967,ozone,19.0,28.0,21.0
india,maharashtra,pimpri-chinchwad,"bhosari,pimpri-chinchwad - iitm",2026-06-23 11:00:00,18.640051,73.848956,ozone,9.0,21.0,14.0
india,maharashtra,pimpri-chinchwad,"gavalinagar, pimpri chinchwad - mpcb",2026-06-23 11:00:00,18.63673,73.82487,pm2.5,7.0,28.0,22.0
india,maharashtra,pimpri-chinchwad,"gavalinagar, pimpri chinchwad - mpcb",2026-06-23 11:00:00,18.63673,73.82487,so2,1.0,2.0,1.0
india,maharashtra,pimpri-chinchwad,"park street wakad, pimpri chinchwad - mpcb",2026-06-23 11:00:00,18.59051,73.77946,ozone,17.0,35.0,22.0
india,maharashtra,pimpri-chinchwad,"savta mali nagar, pimpri-chinchwad - iitm",2026-06-23 11:00:00,18.614767,73.799516,ozone,3.0,23.0,13.0
india,maharashtra,pimpri-chinchwad,"transport nagar-nigdi, pimpri-chinchwad- iitm",2026-06-23 11:00:00,18.664282,73.763966,no2,15.0,23.0,18.0
india,maharashtra,pune,"dhankawadi, pune - iitm",2026-06-23 11:00:00,18.459883,73.852193,ozone,1.0,8.0,3.0
india,maharashtra,ulhasnagar,"sidhi vinayak nagar, ulhasnagar - mpcb",2026-06-23 11:00:00,19.235581,73.159121,pm2.5,24.0,56.0,40.0
india,maharashtra,ulhasnagar,"sidhi vinayak nagar, ulhasnagar - mpcb",2026-06-23 11:00:00,19.235581,73.159121,nh3,3.0,7.0,5.0
india,maharashtra,ulhasnagar,"sidhi vinayak nagar, ulhasnagar - mpcb",2026-06-23 11:00:00,19.235581,73.159121,ozone,7.0,68.0,16.0
india,maharashtra,ulhasnagar,"vithalwadi, ulhasnagar - mpcb",2026-06-23 11:00:00,19.2307571,73.155192,pm2.5,3.0,15.0,9.0
india,maharashtra,ulhasnagar,"vithalwadi, ulhasnagar - mpcb",2026-06-23 11:00:00,19.2307571,73.155192,pm10,4.0,30.0,15.0
india,mizoram,aizawl,"sikulpuikawn, aizawl - mizoram pcb",2026-06-23 11:00:00,23.7176342,92.7192841,no2,1.0,1.0,1.0
india,odisha,angul,"hakimapada, angul - ospcb",2026-06-23 11:00:00,20.832874,85.104082,so2,4.0,16.0,10.0
india,odisha,barbil,"forest office, barbil - ospcb",2026-06-23 11:00:00,22.1166054,85.3945546,co,13.0,94.0,67.0
india,punjab,ludhiana,"punjab agricultural university, ludhiana - ppcb",2026-06-23 11:00:00,30.9028,75.8086,pm10,66.0,109.0,83.0
india,punjab,ludhiana,"punjab agricultural university, ludhiana - ppcb",2026-06-23 11:00:00,30.9028,75.8086,nh3,7.0,11.0,9.0
india,punjab,ludhiana,"punjab agricultural university, ludhiana - ppcb",2026-06-23 11:00:00,30.9028,75.8086,ozone,34.0,73.0,42.0
india,punjab,mandi gobindgarh,"rimt university, mandi gobindgarh - ppcb",2026-06-23 11:00:00,30.649961,76.331442,nh3,5.0,5.0,5.0
india,punjab,mandi gobindgarh,"rimt university, mandi gobindgarh - ppcb",2026-06-23 11:00:00,30.649961,76.331442,so2,1.0,109.0,20.0
india,punjab,patiala,"model town, patiala - ppcb",2026-06-23 11:00:00,30.349388,76.366642,pm2.5,20.0,76.0,45.0
india,punjab,rupnagar,"ratanpura, rupnagar - ambuja cements",2026-06-23 11:00:00,31.0325454,76.5623046,no2,9.0,46.0,26.0
india,rajasthan,ajmer,"civil lines,  ajmer - rspcb",2026-06-23 11:00:00,26.470859,74.646594,pm2.5,45.0,143.0,78.0
india,rajasthan,ajmer,"civil lines,  ajmer - rspcb",2026-06-23 11:00:00,26.470859,74.646594,nh3,6.0,7.0,7.0
india,rajasthan,alwar,"moti doongri, alwar - rspcb",2026-06-23 11:00:00,27.554793,76.611536,no2,33.0,105.0,86.0
india,rajasthan,banswara,"rati talai, banswara - rspcb",2026-06-23 11:00:00,23.55519,74.44001,co,8.0,30.0,21.0
india,rajasthan,baran,"bamboliya, baran - rspcb",2026-06-23 11:00:00,25.106006,76.469948,pm2.5,10.0,90.0,43.0
india,rajasthan,baran,"bamboliya, baran - rspcb",2026-06-23 11:00:00,25.106006,76.469948,nh3,4.0,5.0,4.0
india,rajasthan,baran,"bamboliya, baran - rspcb",2026-06-23 11:00:00,25.106006,76.469948,co,2.0,125.0,66.0
india,rajasthan,barmer,"railway colony, barmer - rspcb",2026-06-23 11:00:00,25.747299,71.393989,no2,1.0,14.0,6.0
india,rajasthan,bharatpur,"krishna nagar, bharatpur - rspcb",2026-06-23 11:00:00,27.215415,77.50873,co,14.0,29.0,22.0
india,rajasthan,khairthal,"new anaj mandi, khairthal - rspcb",2026-06-23 11:00:00,27.8015617,76.6365217,ozone,8.0,41.0,22.0
india,rajasthan,kota,"dhanmandi, kota - rspcb",2026-06-23 11:00:00,25.16409,75.858137,pm10,50.0,124.0,93.0
india,rajasthan,kota,"nayapura, kota - rspcb",2026-06-23 11:00:00,25.196024,75.855668,so2,1.0,12.0,6.0
india,rajasthan,kota,"nayapura, kota - rspcb",2026-06-23 11:00:00,25.196024,75.855668,co,4.0,69.0,16.0
india,rajasthan,nagaur,"karni colony, nagaur - rspcb",2026-06-23 11:00:00,27.213494,73.734444,pm10,75.0,122.0,97.0
india,rajasthan,nagaur,"karni colony, nagaur - rspcb",2026-06-23 11:00:00,27.213494,73.734444,no2,3.0,23.0,8.0
india,rajasthan,pali,"indira colony vistar, pali - rspcb",2026-06-23 11:00:00,25.771061,73.340227,pm10,111.0,189.0,137.0
india,rajasthan,pali,"indira colony vistar, pali - rspcb",2026-06-23 11:00:00,25.771061,73.340227,so2,9.0,24.0,20.0
india,rajasthan,pratapgarh,"pragati nagar, pratapgarh - rspcb",2026-06-23 11:00:00,24.041198,74.780702,co,7.0,15.0,13.0
india,rajasthan,sawai madhopur,"sahu nagar, sawai madhopur - rspcb",2026-06-23 11:00:00,26.031443,76.359327,pm2.5,9.0,77.0,25.0
india,rajasthan,sawai madhopur,"sahu nagar, sawai madhopur - rspcb",2026-06-23 11:00:00,26.031443,76.359327,no2,2.0,36.0,13.0
india,rajasthan,sawai madhopur,"sahu nagar, sawai madhopur - rspcb",2026-06-23 11:00:00,26.031443,76.359327,nh3,2.0,5.0,3.0
india,rajasthan,sikar,"radhakishan pura, sikar - rspcb",2026-06-23 11:00:00,27.608912,75.153302,pm10,83.0,160.0,120.0
india,rajasthan,sikar,"radhakishan pura, sikar - rspcb",2026-06-23 11:00:00,27.608912,75.153302,no2,8.0,56.0,23.0
india,odisha,rourkela,"raghunathpali, rourkela - ospcb",2026-06-23 11:00:00,22.220833,84.809444,so2,3.0,9.0,6.0
india,odisha,rourkela,"raghunathpali, rourkela - ospcb",2026-06-23 11:00:00,22.220833,84.809444,co,14.0,58.0,36.0
india,odisha,rourkela,"sector-2, rourkela - ospcb",2026-06-23 11:00:00,22.245,84.88111111,pm10,75.0,75.0,75.0
india,odisha,suakati,"omc colony, suakati - ospcb",2026-06-23 11:00:00,21.606865,85.510538,co,18.0,20.0,18.0
india,odisha,suakati,"omc colony, suakati - ospcb",2026-06-23 11:00:00,21.606865,85.510538,ozone,38.0,118.0,50.0
india,odisha,talcher,"talcher coalfields,talcher - ospcb",2026-06-23 11:00:00,20.9360711,85.1707021,nh3,5.0,8.0,6.0
india,odisha,tensa,"barsua iron ore mines, tensa - ospcb",2026-06-23 11:00:00,21.869985,85.167016,pm10,8.0,48.0,28.0
india,punjab,amritsar,"golden temple, amritsar - ppcb",2026-06-23 11:00:00,31.62,74.876512,so2,10.0,16.0,12.0
india,punjab,bathinda,"hardev nagar, bathinda - ppcb",2026-06-23 11:00:00,30.233011,74.907758,pm2.5,6.0,37.0,20.0
india,punjab,bathinda,"hardev nagar, bathinda - ppcb",2026-06-23 11:00:00,30.233011,74.907758,pm10,12.0,139.0,44.0
india,punjab,jalandhar,"civil line, jalandhar - ppcb",2026-06-23 11:00:00,31.321907,75.578914,no2,12.0,18.0,15.0
india,punjab,khanna,"kalal majra, khanna - ppcb",2026-06-23 11:00:00,30.736056,76.209694,pm2.5,42.0,53.0,49.0
india,punjab,khanna,"kalal majra, khanna - ppcb",2026-06-23 11:00:00,30.736056,76.209694,no2,26.0,31.0,29.0
india,rajasthan,jhunjhunu,"indra nagar, jhunjhunu - rspcb",2026-06-23 11:00:00,28.108988,75.386577,pm2.5,22.0,117.0,38.0
india,rajasthan,jhunjhunu,"indra nagar, jhunjhunu - rspcb",2026-06-23 11:00:00,28.108988,75.386577,pm10,50.0,325.0,115.0
india,rajasthan,jhunjhunu,"indra nagar, jhunjhunu - rspcb",2026-06-23 11:00:00,28.108988,75.386577,so2,1.0,3.0,2.0
india,rajasthan,jhunjhunu,"indra nagar, jhunjhunu - rspcb",2026-06-23 11:00:00,28.108988,75.386577,ozone,13.0,84.0,50.0
india,rajasthan,jodhpur,"collectorate, jodhpur - rspcb",2026-06-23 11:00:00,26.268249,73.0193853,pm2.5,40.0,84.0,60.0
india,rajasthan,jodhpur,"collectorate, jodhpur - rspcb",2026-06-23 11:00:00,26.268249,73.0193853,nh3,3.0,9.0,6.0
india,rajasthan,jodhpur,"digari kalan, jodhpur - rspcb",2026-06-23 11:00:00,26.29581,73.082283,so2,1.0,4.0,3.0
india,rajasthan,jodhpur,"jhalamand, jodhpur - rspcb",2026-06-23 11:00:00,26.215415,73.070156,co,8.0,16.0,14.0
india,rajasthan,jodhpur,"jhalamand, jodhpur - rspcb",2026-06-23 11:00:00,26.215415,73.070156,ozone,20.0,52.0,25.0
india,rajasthan,jodhpur,"mandor, jodhpur - rspcb",2026-06-23 11:00:00,26.358805,73.047444,ozone,25.0,68.0,30.0
india,rajasthan,jodhpur,"samrat ashok udhyan, jodhpur - rspcb",2026-06-23 11:00:00,26.253384,72.976571,ozone,21.0,66.0,25.0
india,rajasthan,khairthal,"new anaj mandi, khairthal - rspcb",2026-06-23 11:00:00,27.8015617,76.6365217,pm2.5,43.0,140.0,82.0
india,rajasthan,khairthal,"new anaj mandi, khairthal - rspcb",2026-06-23 11:00:00,27.8015617,76.6365217,no2,2.0,20.0,7.0
india,rajasthan,khairthal,"new anaj mandi, khairthal - rspcb",2026-06-23 11:00:00,27.8015617,76.6365217,nh3,2.0,7.0,3.0
india,rajasthan,sikar,"radhakishan pura, sikar - rspcb",2026-06-23 11:00:00,27.608912,75.153302,co,10.0,54.0,20.0
india,rajasthan,sikar,"radhakishan pura, sikar - rspcb",2026-06-23 11:00:00,27.608912,75.153302,ozone,20.0,89.0,36.0
india,rajasthan,sirohi,"vedhaynath colony, sirohi - rspcb",2026-06-23 11:00:00,24.885261,72.857549,nh3,2.0,3.0,2.0
india,rajasthan,sri ganganagar,"old city, sri ganganagar - rspcb",2026-06-23 11:00:00,29.931624,73.864511,nh3,4.0,12.0,7.0
india,rajasthan,sri ganganagar,"old city, sri ganganagar - rspcb",2026-06-23 11:00:00,29.931624,73.864511,co,22.0,118.0,31.0
india,rajasthan,udaipur,"ashok nagar, udaipur - rspcb",2026-06-23 11:00:00,24.5886166,73.6321397,nh3,4.0,11.0,8.0
india,rajasthan,udaipur,"ashok nagar, udaipur - rspcb",2026-06-23 11:00:00,24.5886166,73.6321397,so2,1.0,20.0,9.0
india,sikkim,gangtok,"zero point gici, gangtok - sspcb",2026-06-23 11:00:00,27.33853,88.614099,nh3,1.0,20.0,2.0
india,tamilnadu,chennai,"arumbakkam, chennai - tnpcb",2026-06-23 11:00:00,13.0664,80.2112,pm2.5,12.0,49.0,28.0
india,tamilnadu,chennai,"kodungaiyur, chennai - tnpcb",2026-06-23 11:00:00,13.1278,80.2642,pm2.5,5.0,67.0,33.0
india,tamilnadu,chennai,"manali village, chennai - tnpcb",2026-06-23 11:00:00,13.1662,80.2584,co,23.0,31.0,24.0
india,odisha,bhubaneswar,"lingraj mandir, bhubaneswar - ospcb",2026-06-23 11:00:00,20.24079,85.836784,ozone,5.0,58.0,13.0
india,odisha,bileipada,"tata township, bileipada - ospcb",2026-06-23 11:00:00,22.06156703,85.47409613,pm2.5,14.0,42.0,24.0
india,odisha,brajrajnagar,"gm office, brajrajnagar - ospcb",2026-06-23 11:00:00,21.8004996,83.8396977,no2,22.0,23.0,23.0
india,odisha,brajrajnagar,"gm office, brajrajnagar - ospcb",2026-06-23 11:00:00,21.8004996,83.8396977,nh3,4.0,5.0,4.0
india,odisha,byasanagar,"ferro chrome colony, byasanagar - ospcb",2026-06-23 11:00:00,20.94185,86.1151,pm2.5,17.0,83.0,44.0
india,odisha,cuttack,"cda area, cuttack - ospcb",2026-06-23 11:00:00,20.48891,85.84768,pm2.5,17.0,57.0,33.0
india,odisha,keonjhar,"jagamohanpur, keonjhar - ospcb",2026-06-23 11:00:00,21.6439,85.599355,co,28.0,36.0,31.0
india,odisha,keonjhar,"jagamohanpur, keonjhar - ospcb",2026-06-23 11:00:00,21.6439,85.599355,ozone,17.0,36.0,23.0
india,odisha,rairangpur,"divisional forest office, rairangpur - ospcb",2026-06-23 11:00:00,22.265816,86.174829,no2,6.0,7.0,6.0
india,odisha,rourkela,"fertilizer township, rourkela - ospcb",2026-06-23 11:00:00,22.18972222,84.86277778,pm10,69.0,76.0,72.0
india,tamilnadu,chennai,"perungudi, chennai - tnpcb",2026-06-23 11:00:00,12.9533,80.2357,pm10,27.0,60.0,43.0
india,tamilnadu,chennai,"perungudi, chennai - tnpcb",2026-06-23 11:00:00,12.9533,80.2357,so2,3.0,7.0,5.0
india,tamilnadu,chennai,"royapuram, chennai - tnpcb",2026-06-23 11:00:00,13.1036,80.2909,ozone,29.0,33.0,31.0
india,tamilnadu,coimbatore,"sidco kurichi, coimbatore - tnpcb",2026-06-23 11:00:00,10.942451,76.978996,ozone,19.0,20.0,20.0
india,tamilnadu,gummidipoondi,"anthoni pillai nagar, gummidipoondi - tnpcb",2026-06-23 11:00:00,13.4127,80.1081,pm10,32.0,260.0,92.0
india,tamilnadu,madurai,"uchapatti, madurai - tnpcb",2026-06-23 11:00:00,9.865935,78.022669,ozone,1.0,1.0,1.0
india,tamilnadu,perundurai,"sipcot industrial park, perundurai - tnpcb",2026-06-23 11:00:00,11.258242,77.552761,pm2.5,1.0,30.0,15.0
india,tamilnadu,perundurai,"sipcot industrial park, perundurai - tnpcb",2026-06-23 11:00:00,11.258242,77.552761,ozone,1.0,26.0,24.0
india,rajasthan,bhilwara,"pratap nagar, bhilwara - rspcb",2026-06-23 11:00:00,25.339605,74.618883,ozone,30.0,72.0,39.0
india,rajasthan,bhiwadi,"riico ind. area iii, bhiwadi - rspcb",2026-06-23 11:00:00,28.194909,76.862296,pm10,105.0,153.0,132.0
india,rajasthan,bhiwadi,"vasundhara nagar_uit, bhiwadi - rspcb",2026-06-23 11:00:00,28.207266,76.829265,pm2.5,39.0,288.0,128.0
india,rajasthan,bhiwadi,"vasundhara nagar_uit, bhiwadi - rspcb",2026-06-23 11:00:00,28.207266,76.829265,pm10,67.0,259.0,148.0
india,rajasthan,bhiwadi,"vasundhara nagar_uit, bhiwadi - rspcb",2026-06-23 11:00:00,28.207266,76.829265,so2,22.0,42.0,26.0
india,rajasthan,bhiwadi,"vasundhara nagar_uit, bhiwadi - rspcb",2026-06-23 11:00:00,28.207266,76.829265,ozone,18.0,65.0,18.0
india,rajasthan,bundi,"new colony, bundi - rspcb",2026-06-23 11:00:00,25.435774,75.644272,pm2.5,17.0,113.0,37.0
india,rajasthan,bundi,"new colony, bundi - rspcb",2026-06-23 11:00:00,25.435774,75.644272,pm10,47.0,112.0,70.0
india,rajasthan,chittorgarh,"shastri nagar, chittorgarh - rspcb",2026-06-23 11:00:00,24.892047,74.623527,pm10,44.0,119.0,81.0
india,rajasthan,dungarpur,"bhoiwada, dungarpur - rspcb",2026-06-23 11:00:00,23.837789,73.714926,co,20.0,46.0,27.0
india,rajasthan,hanumangarh,"housing board, hanumangarh - rspcb",2026-06-23 11:00:00,29.61075,74.283608,pm2.5,9.0,87.0,23.0
india,rajasthan,jaipur,"adarsh nagar, jaipur - rspcb",2026-06-23 11:00:00,26.902909,75.836858,nh3,3.0,22.0,6.0
india,rajasthan,jaipur,"police commissionerate, jaipur - rspcb",2026-06-23 11:00:00,26.9164092,75.7994901,pm2.5,51.0,149.0,88.0
india,rajasthan,jaipur,"riico sitapura, jaipur - rspcb",2026-06-23 11:00:00,26.786682,75.827928,pm2.5,33.0,240.0,91.0
india,rajasthan,jaipur,"riico sitapura, jaipur - rspcb",2026-06-23 11:00:00,26.786682,75.827928,nh3,1.0,6.0,2.0
india,rajasthan,jaipur,"sector-2 murlipura, jaipur - rspcb",2026-06-23 11:00:00,26.960669,75.771817,pm10,97.0,193.0,135.0
india,rajasthan,jaipur,"sector-2 murlipura, jaipur - rspcb",2026-06-23 11:00:00,26.960669,75.771817,ozone,2.0,45.0,18.0
india,rajasthan,jalore,"mudtra sili, jalore - rspcb",2026-06-23 11:00:00,25.344694,72.626208,so2,3.0,9.0,4.0
india,uttar_pradesh,agra,"shastripuram, agra - uppcb",2026-06-23 11:00:00,27.19862,77.92066,pm10,68.0,128.0,107.0
india,uttar_pradesh,agra,"shastripuram, agra - uppcb",2026-06-23 11:00:00,27.19862,77.92066,co,6.0,21.0,19.0
india,uttar_pradesh,baghpat,"sardar patel inter college, baghpat - uppcb",2026-06-23 11:00:00,28.964949,77.278761,pm10,92.0,246.0,160.0
india,uttar_pradesh,baghpat,"sardar patel inter college, baghpat - uppcb",2026-06-23 11:00:00,28.964949,77.278761,no2,12.0,66.0,31.0
india,uttar_pradesh,baghpat,"sardar patel inter college, baghpat - uppcb",2026-06-23 11:00:00,28.964949,77.278761,nh3,2.0,6.0,3.0
india,uttar_pradesh,baghpat,"sardar patel inter college, baghpat - uppcb",2026-06-23 11:00:00,28.964949,77.278761,so2,9.0,40.0,20.0
india,uttar_pradesh,bareilly,"civil lines, bareilly - uppcb",2026-06-23 11:00:00,28.359581,79.414455,nh3,1.0,3.0,1.0
india,uttar_pradesh,bareilly,"civil lines, bareilly - uppcb",2026-06-23 11:00:00,28.359581,79.414455,so2,2.0,36.0,18.0
india,uttar_pradesh,bareilly,"civil lines, bareilly - uppcb",2026-06-23 11:00:00,28.359581,79.414455,co,31.0,39.0,36.0
india,uttar_pradesh,bareilly,"rajendra nagar, bareilly - uppcb",2026-06-23 11:00:00,28.38910936,79.42963708,pm2.5,19.0,34.0,26.0
india,uttar_pradesh,firozabad,"nagla bhau, firozabad - uppcb",2026-06-23 11:00:00,27.168897,78.37696,pm10,33.0,96.0,57.0
india,uttar_pradesh,firozabad,"nagla bhau, firozabad - uppcb",2026-06-23 11:00:00,27.168897,78.37696,nh3,2.0,2.0,2.0
india,uttar_pradesh,firozabad,"vibhab nagar, firozabad - uppcb",2026-06-23 11:00:00,27.1594,78.3953,pm10,25.0,41.0,32.0
india,uttar_pradesh,firozabad,"vibhab nagar, firozabad - uppcb",2026-06-23 11:00:00,27.1594,78.3953,so2,2.0,3.0,3.0
india,uttar_pradesh,ghaziabad,"govindpuram, ghaziabad - uppcb",2026-06-23 11:00:00,28.694528,77.494705,no2,12.0,34.0,19.0
india,uttar_pradesh,ghaziabad,"indirapuram, ghaziabad - uppcb",2026-06-23 11:00:00,28.646233,77.358075,nh3,5.0,6.0,6.0
india,uttar_pradesh,ghaziabad,"indirapuram, ghaziabad - uppcb",2026-06-23 11:00:00,28.646233,77.358075,co,24.0,54.0,36.0
india,uttar_pradesh,ghaziabad,"indirapuram, ghaziabad - uppcb",2026-06-23 11:00:00,28.646233,77.358075,ozone,18.0,66.0,37.0
india,uttarakhand,dehradun,"doon university, dehradun - ukpcb",2026-06-23 11:00:00,30.269444,78.044167,ozone,24.0,71.0,33.0
india,uttarakhand,kashipur,"govt. girls inter college, kashipur - ukpcb",2026-06-23 11:00:00,29.2124114,78.9611753,no2,9.0,27.0,15.0
india,uttarakhand,kashipur,"govt. girls inter college, kashipur - ukpcb",2026-06-23 11:00:00,29.2124114,78.9611753,so2,3.0,10.0,6.0
india,west_bengal,asansol,"asansol court area, asansol - wbpcb",2026-06-23 11:00:00,23.685297,86.945968,pm2.5,33.0,98.0,47.0
india,west_bengal,asansol,"asansol court area, asansol - wbpcb",2026-06-23 11:00:00,23.685297,86.945968,so2,10.0,24.0,14.0
india,west_bengal,asansol,"mahabir colliery, asansol - wbpcb",2026-06-23 11:00:00,23.618183,87.105718,no2,2.0,2.0,2.0
india,west_bengal,asansol,"trivenidevi bhalotia college, asansol - wbpcb",2026-06-23 11:00:00,23.616515,87.119133,pm10,19.0,41.0,29.0
india,west_bengal,asansol,"trivenidevi bhalotia college, asansol - wbpcb",2026-06-23 11:00:00,23.616515,87.119133,nh3,5.0,6.0,5.0
india,west_bengal,asansol,"trivenidevi bhalotia college, asansol - wbpcb",2026-06-23 11:00:00,23.616515,87.119133,so2,25.0,28.0,27.0
india,west_bengal,asansol,"trivenidevi bhalotia college, asansol - wbpcb",2026-06-23 11:00:00,23.616515,87.119133,co,28.0,48.0,31.0
india,west_bengal,barrackpore,"svspa campus, barrackpore - wbpcb",2026-06-23 11:00:00,22.7605581,88.3617589,no2,15.0,26.0,20.0
india,west_bengal,barrackpore,"svspa campus, barrackpore - wbpcb",2026-06-23 11:00:00,22.7605581,88.3617589,ozone,10.0,33.0,17.0
india,uttar_pradesh,ghaziabad,"loni, ghaziabad - uppcb",2026-06-23 11:00:00,28.757294,77.278792,pm10,119.0,291.0,192.0
india,uttar_pradesh,ghaziabad,"sanjay nagar, ghaziabad - uppcb",2026-06-23 11:00:00,28.685382,77.453839,no2,15.0,39.0,26.0
india,uttar_pradesh,ghaziabad,"vasundhara, ghaziabad - uppcb",2026-06-23 11:00:00,28.6603346,77.3572563,no2,18.0,79.0,48.0
india,uttar_pradesh,ghaziabad,"vasundhara, ghaziabad - uppcb",2026-06-23 11:00:00,28.6603346,77.3572563,nh3,6.0,11.0,8.0
india,uttar_pradesh,ghaziabad,"vasundhara, ghaziabad - uppcb",2026-06-23 11:00:00,28.6603346,77.3572563,co,40.0,105.0,66.0
india,uttar_pradesh,ghaziabad,"ved vihar-loni, ghaziabad - uppcb",2026-06-23 11:00:00,28.739153,77.273668,pm10,139.0,285.0,189.0
india,uttar_pradesh,gorakhpur,"madan mohan malaviya university of technology, gorakhpur - uppcb",2026-06-23 11:00:00,26.730136,83.433859,ozone,7.0,46.0,11.0
india,uttar_pradesh,greater noida,"knowledge park - iii, greater noida - uppcb",2026-06-23 11:00:00,28.47272,77.482,pm10,132.0,301.0,208.0
india,uttar_pradesh,greater noida,"knowledge park - v, greater noida - uppcb",2026-06-23 11:00:00,28.557054,77.453663,so2,9.0,17.0,12.0
india,uttar_pradesh,hapur,"anand vihar, hapur - uppcb",2026-06-23 11:00:00,28.725645,77.749675,no2,26.0,134.0,72.0
india,uttar_pradesh,jhansi,"shivaji nagar, jhansi - uppcb",2026-06-23 11:00:00,25.4547,78.6039,pm2.5,18.0,42.0,27.0
india,uttar_pradesh,jhansi,"shivaji nagar, jhansi - uppcb",2026-06-23 11:00:00,25.4547,78.6039,so2,14.0,29.0,19.0
india,uttar_pradesh,jhansi,"shivaji nagar, jhansi - uppcb",2026-06-23 11:00:00,25.4547,78.6039,co,4.0,34.0,7.0
india,uttar_pradesh,kanpur,"nsi kalyanpur, kanpur - uppcb",2026-06-23 11:00:00,26.509954,80.249612,no2,31.0,31.0,31.0
india,uttar_pradesh,kanpur,"nsi kalyanpur, kanpur - uppcb",2026-06-23 11:00:00,26.509954,80.249612,co,14.0,28.0,16.0
india,uttar_pradesh,kanpur,"nehru nagar, kanpur - uppcb",2026-06-23 11:00:00,26.4703136,80.3229863,pm2.5,33.0,89.0,60.0
india,uttar_pradesh,kanpur,"nehru nagar, kanpur - uppcb",2026-06-23 11:00:00,26.4703136,80.3229863,pm10,26.0,72.0,48.0
india,uttar_pradesh,khora,"prashant garden, khora - uppcb",2026-06-23 11:00:00,28.61119,77.34206,co,100.0,109.0,102.0
india,uttar_pradesh,khurja,"kalindi kunj, khurja - uppcb",2026-06-23 11:00:00,28.2348927,77.8683002,so2,10.0,10.0,10.0
india,uttar_pradesh,khurja,"kalindi kunj, khurja - uppcb",2026-06-23 11:00:00,28.2348927,77.8683002,co,15.0,33.0,30.0
india,uttar_pradesh,lucknow,"b r ambedkar university, lucknow - uppcb",2026-06-23 11:00:00,26.766433,80.927299,ozone,18.0,57.0,35.0
india,uttar_pradesh,lucknow,"kendriya vidyalaya, lucknow - cpcb",2026-06-23 11:00:00,26.906111,80.948222,so2,5.0,13.0,8.0
india,uttar_pradesh,lucknow,"kukrail picnic spot-1, lucknow - uppcb",2026-06-23 11:00:00,26.90723,80.98579,ozone,55.0,82.0,76.0
india,uttar_pradesh,lucknow,"lalbagh, lucknow - cpcb",2026-06-23 11:00:00,26.8458805,80.9365541,no2,19.0,34.0,26.0
india,uttar_pradesh,lucknow,"lalbagh, lucknow - cpcb",2026-06-23 11:00:00,26.8458805,80.9365541,nh3,8.0,15.0,11.0
india,uttar_pradesh,lucknow,"talkatora district industries center, lucknow - cpcb",2026-06-23 11:00:00,26.83399722,80.8917361,so2,1.0,38.0,10.0
india,uttar_pradesh,mathura,"pali dungra, mathura - uppcb",2026-06-23 11:00:00,27.410954,77.550619,pm2.5,26.0,59.0,39.0
india,uttar_pradesh,meerut,"ganga nagar, meerut - uppcb",2026-06-23 11:00:00,28.999264,77.7590354,pm2.5,25.0,144.0,67.0
india,uttar_pradesh,meerut,"ganga nagar, meerut - uppcb",2026-06-23 11:00:00,28.999264,77.7590354,so2,32.0,53.0,41.0
india,uttar_pradesh,meerut,"jai bhim nagar, meerut - uppcb",2026-06-23 11:00:00,28.9535882,77.7622941,pm2.5,15.0,103.0,55.0
india,uttar_pradesh,meerut,"jai bhim nagar, meerut - uppcb",2026-06-23 11:00:00,28.9535882,77.7622941,pm10,92.0,257.0,137.0
india,uttar_pradesh,meerut,"miet college, meerut - uppcb",2026-06-23 11:00:00,28.972677,77.641018,pm10,103.0,279.0,162.0
india,uttar_pradesh,meerut,"miet college, meerut - uppcb",2026-06-23 11:00:00,28.972677,77.641018,co,32.0,68.0,55.0
india,uttar_pradesh,meerut,"miet college, meerut - uppcb",2026-06-23 11:00:00,28.972677,77.641018,ozone,90.0,316.0,188.0
india,uttar_pradesh,moradabad,"buddhi vihar, moradabad - uppcb",2026-06-23 11:00:00,28.83526,78.7446,no2,28.0,29.0,29.0
india,uttar_pradesh,moradabad,"buddhi vihar, moradabad - uppcb",2026-06-23 11:00:00,28.83526,78.7446,co,25.0,45.0,31.0
india,uttar_pradesh,moradabad,"eco herbal park, moradabad - uppcb",2026-06-23 11:00:00,28.840739,78.697531,pm2.5,26.0,162.0,80.0
india,uttar_pradesh,moradabad,"eco herbal park, moradabad - uppcb",2026-06-23 11:00:00,28.840739,78.697531,so2,12.0,28.0,16.0
india,uttar_pradesh,moradabad,"eco herbal park, moradabad - uppcb",2026-06-23 11:00:00,28.840739,78.697531,co,18.0,44.0,31.0
india,uttar_pradesh,moradabad,"eco herbal park, moradabad - uppcb",2026-06-23 11:00:00,28.840739,78.697531,ozone,32.0,124.0,54.0
india,uttar_pradesh,moradabad,"employment office, moradabad - uppcb",2026-06-23 11:00:00,28.88528,78.7388,pm2.5,54.0,125.0,76.0
india,telangana,hyderabad,"somajiguda, hyderabad - tspcb",2026-06-23 11:00:00,17.417094,78.457437,so2,11.0,14.0,12.0
india,telangana,hyderabad,"somajiguda, hyderabad - tspcb",2026-06-23 11:00:00,17.417094,78.457437,co,32.0,52.0,38.0
india,telangana,hyderabad,"zoo park, hyderabad - tspcb",2026-06-23 11:00:00,17.349694,78.451437,nh3,2.0,2.0,2.0
india,telangana,hyderabad,"zoo park, hyderabad - tspcb",2026-06-23 11:00:00,17.349694,78.451437,so2,1.0,2.0,2.0
india,tripura,agartala,"bardowali, agartala - tripura spcb",2026-06-23 11:00:00,23.8175497,91.2726974,so2,7.0,7.0,7.0
india,tripura,agartala,"bardowali, agartala - tripura spcb",2026-06-23 11:00:00,23.8175497,91.2726974,co,16.0,34.0,19.0
india,uttar_pradesh,agra,"manoharpur, agra - uppcb",2026-06-23 11:00:00,27.23711,78.01936,pm2.5,99.0,193.0,149.0
india,uttar_pradesh,agra,"manoharpur, agra - uppcb",2026-06-23 11:00:00,27.23711,78.01936,nh3,1.0,1.0,1.0
india,uttar_pradesh,agra,"rohta, agra - uppcb",2026-06-23 11:00:00,27.106972,78.000111,pm2.5,41.0,100.0,63.0
india,uttar_pradesh,agra,"rohta, agra - uppcb",2026-06-23 11:00:00,27.106972,78.000111,pm10,65.0,180.0,137.0
india,uttar_pradesh,agra,"sanjay palace, agra - uppcb",2026-06-23 11:00:00,27.19865833,78.00598056,so2,18.0,21.0,20.0
india,uttar_pradesh,agra,"sector-3b avas vikas colony, agra - uppcb",2026-06-23 11:00:00,27.19412,77.96237,so2,13.0,14.0,13.0
india,uttar_pradesh,agra,"sector-3b avas vikas colony, agra - uppcb",2026-06-23 11:00:00,27.19412,77.96237,co,6.0,14.0,10.0
india,telangana,hyderabad,"ecil kapra, hyderabad - tspcb",2026-06-23 11:00:00,17.470431,78.566959,ozone,26.0,54.0,27.0
india,telangana,hyderabad,"ida pashamylaram, hyderabad - tspcb",2026-06-23 11:00:00,17.5316895,78.218939,no2,3.0,42.0,19.0
india,telangana,hyderabad,"iith kandi, hyderabad - tspcb",2026-06-23 11:00:00,17.585705,78.126199,co,30.0,42.0,33.0
india,telangana,hyderabad,"kokapet, hyderabad - tspcb",2026-06-23 11:00:00,17.393559,78.339194,pm10,46.0,76.0,60.0
india,telangana,hyderabad,"kompally municipal office, hyderabad - tspcb",2026-06-23 11:00:00,17.544899,78.486949,nh3,2.0,3.0,2.0
india,telangana,hyderabad,"kompally municipal office, hyderabad - tspcb",2026-06-23 11:00:00,17.544899,78.486949,co,27.0,40.0,37.0
india,telangana,hyderabad,"nacharam_tsiic iala, hyderabad - tspcb",2026-06-23 11:00:00,17.429398,78.569354,pm2.5,46.0,69.0,52.0
india,telangana,hyderabad,"nacharam_tsiic iala, hyderabad - tspcb",2026-06-23 11:00:00,17.429398,78.569354,no2,16.0,21.0,17.0
india,telangana,hyderabad,"nacharam_tsiic iala, hyderabad - tspcb",2026-06-23 11:00:00,17.429398,78.569354,so2,12.0,16.0,13.0
india,uttar_pradesh,prayagraj,"jhunsi, prayagraj - uppcb",2026-06-23 11:00:00,25.425602,81.917152,nh3,5.0,6.0,6.0
india,uttar_pradesh,prayagraj,"jhunsi, prayagraj - uppcb",2026-06-23 11:00:00,25.425602,81.917152,co,5.0,22.0,8.0
india,uttar_pradesh,prayagraj,"motilal nehru nit, prayagraj - uppcb",2026-06-23 11:00:00,25.494,81.863,ozone,11.0,48.0,21.0
india,uttar_pradesh,prayagraj,"nagar nigam, prayagraj - uppcb",2026-06-23 11:00:00,25.44919916,81.82735986,pm2.5,14.0,46.0,24.0
india,uttar_pradesh,raebareli,"indira nagar, raebareli - ntpc unchahar",2026-06-23 11:00:00,26.207781,81.245571,nh3,7.0,12.0,10.0
india,uttar_pradesh,varanasi,"ardhali bazar, varanasi - uppcb",2026-06-23 11:00:00,25.3505986,82.9083074,pm10,35.0,136.0,87.0
india,uttar_pradesh,varanasi,"ardhali bazar, varanasi - uppcb",2026-06-23 11:00:00,25.3505986,82.9083074,ozone,14.0,33.0,23.0
india,uttar_pradesh,varanasi,"bhelupur, varanasi - uppcb",2026-06-23 11:00:00,25.301778,82.996789,pm2.5,21.0,62.0,37.0
india,uttar_pradesh,varanasi,"bhelupur, varanasi - uppcb",2026-06-23 11:00:00,25.301778,82.996789,nh3,1.0,1.0,1.0
india,uttar_pradesh,varanasi,"maldahiya, varanasi - uppcb",2026-06-23 11:00:00,25.32393,82.99687,co,10.0,24.0,13.0
india,uttar_pradesh,varanasi,"maldahiya, varanasi - uppcb",2026-06-23 11:00:00,25.32393,82.99687,ozone,4.0,15.0,7.0
india,uttar_pradesh,moradabad,"jigar colony, moradabad - uppcb",2026-06-23 11:00:00,28.856664,78.772638,pm2.5,31.0,117.0,65.0
india,uttar_pradesh,moradabad,"kashiram nagar, moradabad - uppcb",2026-06-23 11:00:00,28.849399,78.742362,pm2.5,47.0,227.0,79.0
india,uttar_pradesh,muzaffarnagar,"new mandi, muzaffarnagar - uppcb",2026-06-23 11:00:00,29.4723508,77.7194031,pm2.5,40.0,155.0,88.0
india,uttar_pradesh,muzaffarnagar,"new mandi, muzaffarnagar - uppcb",2026-06-23 11:00:00,29.4723508,77.7194031,pm10,78.0,155.0,116.0
india,uttar_pradesh,muzaffarnagar,"new mandi, muzaffarnagar - uppcb",2026-06-23 11:00:00,29.4723508,77.7194031,so2,21.0,102.0,38.0
india,uttar_pradesh,noida,"sector - 125, noida - uppcb",2026-06-23 11:00:00,28.5447608,77.3231257,nh3,14.0,19.0,17.0
india,uttar_pradesh,noida,"sector-116, noida - uppcb",2026-06-23 11:00:00,28.56923,77.393848,pm10,105.0,262.0,164.0
india,west_bengal,durgapur,"mahishkapur road_b-zone, durgapur - wbpcb",2026-06-23 11:00:00,23.567923,87.306843,nh3,1.0,1.0,1.0
india,west_bengal,durgapur,"pcbl residential complex, durgapur - wbpcb",2026-06-23 11:00:00,23.508764,87.35444,pm10,3.0,85.0,38.0
india,west_bengal,durgapur,"pcbl residential complex, durgapur - wbpcb",2026-06-23 11:00:00,23.508764,87.35444,so2,10.0,15.0,10.0
india,west_bengal,durgapur,"pcbl residential complex, durgapur - wbpcb",2026-06-23 11:00:00,23.508764,87.35444,co,21.0,64.0,36.0
india,west_bengal,haldia,"priyambada housing estate, haldia - wbpcb",2026-06-23 11:00:00,22.06047,88.109737,pm2.5,32.0,72.0,47.0
india,west_bengal,haldia,"priyambada housing estate, haldia - wbpcb",2026-06-23 11:00:00,22.06047,88.109737,nh3,4.0,6.0,5.0
india,west_bengal,haldia,"priyambada housing estate, haldia - wbpcb",2026-06-23 11:00:00,22.06047,88.109737,ozone,18.0,25.0,21.0
india,west_bengal,howrah,"belur math, howrah - wbpcb",2026-06-23 11:00:00,22.629801,88.352017,pm10,71.0,105.0,92.0
india,west_bengal,howrah,"belur math, howrah - wbpcb",2026-06-23 11:00:00,22.629801,88.352017,nh3,3.0,5.0,4.0
india,west_bengal,howrah,"belur math, howrah - wbpcb",2026-06-23 11:00:00,22.629801,88.352017,so2,5.0,10.0,7.0
india,west_bengal,howrah,"belur math, howrah - wbpcb",2026-06-23 11:00:00,22.629801,88.352017,ozone,8.0,12.0,8.0
india,west_bengal,howrah,"dasnagar, howrah - wbpcb",2026-06-23 11:00:00,22.6025571,88.3105664,pm2.5,3.0,98.0,43.0
india,west_bengal,howrah,"ghusuri, howrah - wbpcb",2026-06-23 11:00:00,22.611968,88.347422,pm10,79.0,103.0,92.0
india,west_bengal,howrah,"padmapukur, howrah - wbpcb",2026-06-23 11:00:00,22.5687319,88.2797276,pm10,70.0,110.0,93.0
india,west_bengal,kolkata,"ballygunge, kolkata - wbpcb",2026-06-23 11:00:00,22.5367507,88.3638022,no2,21.0,46.0,29.0
india,west_bengal,kolkata,"ballygunge, kolkata - wbpcb",2026-06-23 11:00:00,22.5367507,88.3638022,co,20.0,32.0,26.0
india,west_bengal,kolkata,"bidhannagar, kolkata - wbpcb",2026-06-23 11:00:00,22.58157048,88.41002457,pm2.5,25.0,47.0,35.0
india,west_bengal,kolkata,"fort william, kolkata - wbpcb",2026-06-23 11:00:00,22.55664,88.342674,pm2.5,11.0,91.0,56.0
india,west_bengal,kolkata,"fort william, kolkata - wbpcb",2026-06-23 11:00:00,22.55664,88.342674,so2,5.0,6.0,5.0
india,west_bengal,kolkata,"jadavpur, kolkata - wbpcb",2026-06-23 11:00:00,22.49929,88.36917,no2,18.0,152.0,40.0
india,west_bengal,kolkata,"jadavpur, kolkata - wbpcb",2026-06-23 11:00:00,22.49929,88.36917,co,23.0,32.0,25.0
india,west_bengal,kolkata,"rabindra bharati university, kolkata - wbpcb",2026-06-23 11:00:00,22.627847,88.380669,pm10,49.0,75.0,60.0
india,west_bengal,kolkata,"rabindra sarobar, kolkata - wbpcb",2026-06-23 11:00:00,22.51106,88.35142,pm2.5,29.0,46.0,39.0
india,west_bengal,kolkata,"rabindra sarobar, kolkata - wbpcb",2026-06-23 11:00:00,22.51106,88.35142,nh3,7.0,10.0,8.0
india,west_bengal,kolkata,"victoria, kolkata - wbpcb",2026-06-23 11:00:00,22.5448082,88.3403691,no2,20.0,26.0,23.0
india,west_bengal,siliguri,"ward-32 bapupara, siliguri - wbpcb",2026-06-23 11:00:00,26.6879226,88.4152495,pm2.5,13.0,27.0,18.0
india,west_bengal,siliguri,"ward-32 bapupara, siliguri - wbpcb",2026-06-23 11:00:00,26.6879226,88.4152495,nh3,17.0,21.0,19.0
india,bihar,patna,"rajbansi nagar, patna - bspcb",2026-06-23 11:00:00,25.599486,85.113666,ozone,25.0,37.0,31.0
india,bihar,patna,"samanpura, patna - bspcb",2026-06-23 11:00:00,25.596727,85.085624,co,20.0,30.0,26.0
india,bihar,purnia,"mariam nagar, purnia - bspcb",2026-06-23 11:00:00,25.366336,87.117468,nh3,2.0,2.0,2.0
india,bihar,rajgir,"dangi tola, rajgir - bspcb",2026-06-23 11:00:00,25.0328,85.41948,so2,2.0,3.0,3.0
india,bihar,saharsa,"police line, saharsa - bspcb",2026-06-23 11:00:00,25.892357,86.590325,pm2.5,6.0,200.0,45.0
india,bihar,saharsa,"police line, saharsa - bspcb",2026-06-23 11:00:00,25.892357,86.590325,pm10,12.0,151.0,55.0
india,bihar,saharsa,"police line, saharsa - bspcb",2026-06-23 11:00:00,25.892357,86.590325,ozone,14.0,36.0,14.0
india,bihar,samastipur,"dm office_kasipur, samastipur - bspcb",2026-06-23 11:00:00,25.859655,85.77944,pm10,19.0,175.0,68.0
india,chandigarh,chandigarh,"sector 22, chandigarh - cpcc",2026-06-23 11:00:00,30.735567,76.775714,pm2.5,8.0,57.0,32.0
india,chandigarh,chandigarh,"sector 22, chandigarh - cpcc",2026-06-23 11:00:00,30.735567,76.775714,pm10,20.0,63.0,39.0
india,chandigarh,chandigarh,"sector 22, chandigarh - cpcc",2026-06-23 11:00:00,30.735567,76.775714,co,46.0,89.0,53.0
india,bihar,bihar sharif,"d m colony, bihar sharif - bspcb",2026-06-23 11:00:00,25.204762,85.51496,co,44.0,64.0,59.0
india,bihar,buxar,"charitra van, buxar - bspcb",2026-06-23 11:00:00,25.56752,83.966379,pm2.5,25.0,60.0,42.0
india,bihar,buxar,"charitra van, buxar - bspcb",2026-06-23 11:00:00,25.56752,83.966379,co,22.0,29.0,25.0
india,bihar,buxar,"charitra van, buxar - bspcb",2026-06-23 11:00:00,25.56752,83.966379,ozone,12.0,155.0,36.0
india,bihar,gaya,"kareemganj, gaya - bspcb",2026-06-23 11:00:00,24.792403,84.992416,pm10,55.0,115.0,92.0
india,bihar,gaya,"kareemganj, gaya - bspcb",2026-06-23 11:00:00,24.792403,84.992416,nh3,1.0,2.0,1.0
india,bihar,gaya,"kareemganj, gaya - bspcb",2026-06-23 11:00:00,24.792403,84.992416,so2,40.0,44.0,42.0
india,bihar,gaya,"sfti kusdihra, gaya - bspcb",2026-06-23 11:00:00,24.762518,84.982348,pm10,43.0,64.0,52.0
india,bihar,gaya,"sfti kusdihra, gaya - bspcb",2026-06-23 11:00:00,24.762518,84.982348,so2,6.0,12.0,8.0
india,bihar,gaya,"sfti kusdihra, gaya - bspcb",2026-06-23 11:00:00,24.762518,84.982348,ozone,7.0,74.0,20.0
india,bihar,hajipur,"industrial area, hajipur - bspcb",2026-06-23 11:00:00,25.697189,85.2459,no2,12.0,22.0,16.0
india,bihar,hajipur,"industrial area, hajipur - bspcb",2026-06-23 11:00:00,25.697189,85.2459,co,8.0,22.0,10.0
india,bihar,katihar,"mirchaibari, katihar - bspcb",2026-06-23 11:00:00,25.560083,87.553265,pm10,7.0,35.0,21.0
india,bihar,katihar,"mirchaibari, katihar - bspcb",2026-06-23 11:00:00,25.560083,87.553265,co,74.0,96.0,87.0
india,bihar,kishanganj,"sdm office_khagra, kishanganj - bspcb",2026-06-23 11:00:00,26.0881305,87.93840336,pm2.5,42.0,173.0,81.0
india,bihar,manguraha,"forest rest house, manguraha - bspcb",2026-06-23 11:00:00,27.308328,84.531742,nh3,1.0,1.0,1.0
india,bihar,motihari,"gandak colony, motihari - bspcb",2026-06-23 11:00:00,26.63086,84.90051,co,12.0,16.0,14.0
india,bihar,munger,"town hall, munger - bspcb",2026-06-23 11:00:00,25.376776,86.471523,no2,6.0,8.0,7.0
india,bihar,munger,"town hall, munger - bspcb",2026-06-23 11:00:00,25.376776,86.471523,co,12.0,24.0,18.0
india,bihar,muzaffarpur,"buddha colony, muzaffarpur - bspcb",2026-06-23 11:00:00,26.11442,85.39813,pm10,53.0,163.0,93.0
india,bihar,muzaffarpur,"buddha colony, muzaffarpur - bspcb",2026-06-23 11:00:00,26.11442,85.39813,no2,8.0,13.0,11.0
india,bihar,muzaffarpur,"buddha colony, muzaffarpur - bspcb",2026-06-23 11:00:00,26.11442,85.39813,co,15.0,23.0,19.0
india,bihar,muzaffarpur,"mit-daudpur kothi, muzaffarpur - bspcb",2026-06-23 11:00:00,26.1403345,85.3650192,so2,5.0,10.0,7.0
india,bihar,muzaffarpur,"muzaffarpur collectorate, muzaffarpur - bspcb",2026-06-23 11:00:00,26.1209,85.3647,ozone,12.0,57.0,15.0
india,bihar,patna,"drm office danapur, patna - bspcb",2026-06-23 11:00:00,25.586562,85.043586,co,34.0,50.0,41.0
india,bihar,patna,"drm office danapur, patna - bspcb",2026-06-23 11:00:00,25.586562,85.043586,ozone,25.0,32.0,27.0
india,bihar,patna,"govt. high school shikarpur, patna - bspcb",2026-06-23 11:00:00,25.592539,85.227158,pm2.5,15.0,75.0,37.0
india,bihar,patna,"govt. high school shikarpur, patna - bspcb",2026-06-23 11:00:00,25.592539,85.227158,so2,8.0,10.0,9.0
india,bihar,patna,"govt. high school shikarpur, patna - bspcb",2026-06-23 11:00:00,25.592539,85.227158,co,16.0,22.0,20.0
india,bihar,patna,"muradpur, patna - bspcb",2026-06-23 11:00:00,25.619651,85.147382,nh3,4.0,5.0,5.0
india,chandigarh,chandigarh,"sector-53, chandigarh - cpcc",2026-06-23 11:00:00,30.719859,76.738637,nh3,13.0,21.0,17.0
india,chhattisgarh,bhilai,"32bungalows, bhilai - cecb",2026-06-23 11:00:00,21.194815,81.31477,pm2.5,8.0,23.0,15.0
india,chhattisgarh,bhilai,"civic center, bhilai - bhilai steel plant",2026-06-23 11:00:00,21.185571,81.343175,so2,9.0,12.0,10.0
india,chhattisgarh,bhilai,"hathkhoj, bhilai - cecb",2026-06-23 11:00:00,21.224231,81.40835,co,15.0,129.0,25.0
india,chhattisgarh,bilaspur,"mangala, bilaspur - ntpc",2026-06-23 11:00:00,22.08815,82.13737,pm2.5,27.0,55.0,41.0
india,chhattisgarh,chhal,"nawapara secl colony, chhal - cecb",2026-06-23 11:00:00,22.118125,83.140608,pm2.5,16.0,44.0,27.0
india,chhattisgarh,chhal,"nawapara secl colony, chhal - cecb",2026-06-23 11:00:00,22.118125,83.140608,pm10,27.0,68.0,41.0
india,chhattisgarh,chhal,"nawapara secl colony, chhal - cecb",2026-06-23 11:00:00,22.118125,83.140608,no2,9.0,21.0,13.0
india,chhattisgarh,chhal,"nawapara secl colony, chhal - cecb",2026-06-23 11:00:00,22.118125,83.140608,so2,1.0,26.0,6.0
india,chhattisgarh,korba,"rampur, korba - cecb",2026-06-23 11:00:00,22.368195,82.746431,pm2.5,4.0,27.0,12.0
india,chhattisgarh,korba,"rampur, korba - cecb",2026-06-23 11:00:00,22.368195,82.746431,ozone,8.0,9.0,8.0
india,chhattisgarh,korba,"urja nagar, korba - cecb",2026-06-23 11:00:00,22.348441,82.549611,no2,9.0,13.0,11.0
india,chhattisgarh,korba,"urja nagar, korba - cecb",2026-06-23 11:00:00,22.348441,82.549611,nh3,1.0,1.0,1.0
india,andhra_pradesh,vijayawada,"rajiv nagar, vijayawada - appcb",2026-06-23 11:00:00,16.554731,80.64911,pm2.5,44.0,57.0,51.0
india,arunachal_pradesh,naharlagun,"naharlagun, naharlagun - apspcb",2026-06-23 11:00:00,27.103358,93.679645,nh3,1.0,1.0,1.0
india,arunachal_pradesh,naharlagun,"naharlagun, naharlagun - apspcb",2026-06-23 11:00:00,27.103358,93.679645,co,2.0,14.0,10.0
india,assam,byrnihat,"central academy for sfs, byrnihat - pcba",2026-06-23 11:00:00,26.071318,91.87488,so2,22.0,33.0,29.0
india,assam,guwahati,"iitg, guwahati - pcba",2026-06-23 11:00:00,26.2028636,91.70046436,pm2.5,7.0,41.0,25.0
india,assam,guwahati,"iitg, guwahati - pcba",2026-06-23 11:00:00,26.2028636,91.70046436,so2,36.0,40.0,38.0
india,assam,guwahati,"lgbi airport, guwahati - pcba",2026-06-23 11:00:00,26.10887,91.589544,no2,14.0,16.0,15.0
india,assam,nalbari,"bata chowk, nalbari - pcba",2026-06-23 11:00:00,26.446912,91.439057,pm2.5,32.0,106.0,50.0
india,assam,nalbari,"bata chowk, nalbari - pcba",2026-06-23 11:00:00,26.446912,91.439057,nh3,6.0,6.0,6.0
india,assam,silchar,"tarapur, silchar - pcba",2026-06-23 11:00:00,24.82827,92.79525,co,43.0,56.0,49.0
india,assam,sivasagar,"girls college, sivasagar - pcba",2026-06-23 11:00:00,26.987634,94.636574,pm2.5,11.0,21.0,16.0
india,bihar,aurangabad,"gurdeo nagar, aurangabad - bspcb",2026-06-23 11:00:00,24.75746,84.366208,pm2.5,13.0,123.0,32.0
india,bihar,begusarai,"lohiyanagar, begusarai - bspcb",2026-06-23 11:00:00,25.42742023,86.13886079,pm2.5,13.0,77.0,43.0
india,bihar,begusarai,"lohiyanagar, begusarai - bspcb",2026-06-23 11:00:00,25.42742023,86.13886079,pm10,20.0,116.0,66.0
india,bihar,bettiah,"kamalnath nagar, bettiah - bspcb",2026-06-23 11:00:00,26.80365,84.51954,so2,9.0,12.0,11.0
india,bihar,bettiah,"kamalnath nagar, bettiah - bspcb",2026-06-23 11:00:00,26.80365,84.51954,ozone,21.0,23.0,22.0
india,bihar,bhagalpur,"dm office_kachari chowk, bhagalpur - bspcb",2026-06-23 11:00:00,25.251013,86.989001,nh3,1.0,1.0,1.0
india,bihar,bhagalpur,"dm office_kachari chowk, bhagalpur - bspcb",2026-06-23 11:00:00,25.251013,86.989001,co,14.0,58.0,22.0
india,chhattisgarh,raipur,"aiims, raipur - cecb",2026-06-23 11:00:00,21.258815,81.578979,nh3,4.0,4.0,4.0
india,chhattisgarh,raipur,"bhatagaon new isbt, raipur - cecb",2026-06-23 11:00:00,21.219665,81.630094,nh3,2.0,2.0,2.0
india,chhattisgarh,raipur,"krishak nagar, raipur - cecb",2026-06-23 11:00:00,21.237755,81.705301,no2,1.0,8.0,2.0
india,chhattisgarh,raipur,"krishak nagar, raipur - cecb",2026-06-23 11:00:00,21.237755,81.705301,nh3,2.0,2.0,2.0
india,chhattisgarh,tumidih,"op jindal industrial park, tumidih - cecb",2026-06-23 11:00:00,22.06631475,83.33820077,pm2.5,13.0,70.0,34.0
india,chhattisgarh,tumidih,"op jindal industrial park, tumidih - cecb",2026-06-23 11:00:00,22.06631475,83.33820077,co,5.0,78.0,8.0
india,chhattisgarh,tumidih,"op jindal industrial park, tumidih - cecb",2026-06-23 11:00:00,22.06631475,83.33820077,ozone,35.0,35.0,35.0
india,delhi,delhi,"alipur, delhi - dpcc",2026-06-23 11:00:00,28.815329,77.15301,pm2.5,23.0,338.0,130.0
india,delhi,delhi,"alipur, delhi - dpcc",2026-06-23 11:00:00,28.815329,77.15301,nh3,10.0,17.0,12.0
india,delhi,delhi,"anand vihar, delhi - dpcc",2026-06-23 11:00:00,28.647622,77.315809,pm10,120.0,427.0,231.0
india,delhi,delhi,"ashok vihar, delhi - dpcc",2026-06-23 11:00:00,28.695381,77.181665,pm2.5,23.0,302.0,98.0
india,delhi,delhi,"ashok vihar, delhi - dpcc",2026-06-23 11:00:00,28.695381,77.181665,so2,14.0,42.0,22.0
india,delhi,delhi,"aya nagar, delhi - iitm",2026-06-23 11:00:00,28.4706914,77.1099364,pm10,49.0,212.0,122.0
india,delhi,delhi,"bawana, delhi - dpcc",2026-06-23 11:00:00,28.7762,77.051074,no2,7.0,34.0,19.0
india,delhi,delhi,"bawana, delhi - dpcc",2026-06-23 11:00:00,28.7762,77.051074,so2,8.0,102.0,30.0
india,delhi,delhi,"burari crossing, delhi - iitm",2026-06-23 11:00:00,28.7256504,77.2011573,ozone,1.0,83.0,26.0
india,delhi,delhi,"commonwealth sports complex, delhi - dpcc",2026-06-23 11:00:00,28.615828,77.271992,pm2.5,38.0,174.0,80.0
india,delhi,delhi,"commonwealth sports complex, delhi - dpcc",2026-06-23 11:00:00,28.615828,77.271992,ozone,1.0,95.0,22.0
india,delhi,delhi,"dtu, delhi - cpcb",2026-06-23 11:00:00,28.7500499,77.1112615,pm2.5,17.0,317.0,117.0
india,delhi,delhi,"dtu, delhi - cpcb",2026-06-23 11:00:00,28.7500499,77.1112615,so2,32.0,34.0,33.0
india,delhi,delhi,"dtu, delhi - cpcb",2026-06-23 11:00:00,28.7500499,77.1112615,co,16.0,42.0,35.0
india,andhra_pradesh,nellore,"ambedkar nagar, nellore - appcb",2026-06-23 11:00:00,14.438164,79.966814,ozone,27.0,57.0,30.0
india,andhra_pradesh,rajamahendravaram,"anand kala kshetram, rajamahendravaram - appcb",2026-06-23 11:00:00,16.9872867,81.7363176,co,6.0,39.0,15.0
india,andhra_pradesh,tirumala,"toll gate, tirumala - appcb",2026-06-23 11:00:00,13.67,79.35,ozone,13.0,111.0,47.0
india,andhra_pradesh,vijayawada,"kanuru, vijayawada - appcb",2026-06-23 11:00:00,16.486692,80.699436,pm10,53.0,81.0,60.0
india,andhra_pradesh,vijayawada,"rajiv gandhi park, vijayawada - appcb",2026-06-23 11:00:00,16.509717,80.612222,nh3,2.0,7.0,4.0
india,andhra_pradesh,vijayawada,"rajiv gandhi park, vijayawada - appcb",2026-06-23 11:00:00,16.509717,80.612222,so2,12.0,20.0,15.0
india,andhra_pradesh,amaravati,"secretariat, amaravati - appcb",2026-06-23 11:00:00,16.5150833,80.5181667,pm2.5,6.0,38.0,23.0
india,andhra_pradesh,amaravati,"secretariat, amaravati - appcb",2026-06-23 11:00:00,16.5150833,80.5181667,pm10,16.0,81.0,38.0
india,andhra_pradesh,amaravati,"secretariat, amaravati - appcb",2026-06-23 11:00:00,16.5150833,80.5181667,so2,9.0,36.0,20.0
india,andhra_pradesh,amaravati,"secretariat, amaravati - appcb",2026-06-23 11:00:00,16.5150833,80.5181667,ozone,13.0,59.0,26.0
india,andhra_pradesh,chittoor,"gangineni cheruvu, chittoor - appcb",2026-06-23 11:00:00,13.20488,79.097889,no2,24.0,36.0,34.0
india,andhra_pradesh,chittoor,"gangineni cheruvu, chittoor - appcb",2026-06-23 11:00:00,13.20488,79.097889,nh3,6.0,9.0,8.0
india,andhra_pradesh,kadapa,"yerramukkapalli, kadapa - appcb",2026-06-23 11:00:00,14.465052,78.824187,pm2.5,46.0,73.0,67.0
india,andhra_pradesh,kadapa,"yerramukkapalli, kadapa - appcb",2026-06-23 11:00:00,14.465052,78.824187,nh3,3.0,6.0,5.0
india,andhra_pradesh,machilipatnam,"srinivas nagar colony, machilipatnam - appcb",2026-06-23 11:00:00,16.186555,81.13219,no2,14.0,35.0,21.0
india,gujarat,vapi,"phase-1 gidc, vapi - gpcb",2026-06-23 11:00:00,20.362421,72.918013,ozone,4.0,17.0,5.0
india,haryana,bahadurgarh,"arya nagar, bahadurgarh - hspcb",2026-06-23 11:00:00,28.6701,76.9254,so2,6.0,7.0,6.0
india,haryana,bahadurgarh,"arya nagar, bahadurgarh - hspcb",2026-06-23 11:00:00,28.6701,76.9254,co,45.0,52.0,47.0
india,haryana,bahadurgarh,"arya nagar, bahadurgarh - hspcb",2026-06-23 11:00:00,28.6701,76.9254,ozone,23.0,28.0,25.0
india,haryana,ballabgarh,"nathu colony, ballabgarh - hspcb",2026-06-23 11:00:00,28.3419248,77.319699,pm2.5,45.0,262.0,145.0
india,haryana,ballabgarh,"nathu colony, ballabgarh - hspcb",2026-06-23 11:00:00,28.3419248,77.319699,pm10,107.0,398.0,236.0
india,haryana,ballabgarh,"nathu colony, ballabgarh - hspcb",2026-06-23 11:00:00,28.3419248,77.319699,co,27.0,87.0,42.0
india,haryana,bhiwani,"h.b. colony, bhiwani - hspcb",2026-06-23 11:00:00,28.806223,76.141105,pm10,93.0,125.0,100.0
india,haryana,bhiwani,"h.b. colony, bhiwani - hspcb",2026-06-23 11:00:00,28.806223,76.141105,no2,7.0,10.0,8.0
india,haryana,bhiwani,"h.b. colony, bhiwani - hspcb",2026-06-23 11:00:00,28.806223,76.141105,nh3,1.0,3.0,2.0
india,haryana,bhiwani,"h.b. colony, bhiwani - hspcb",2026-06-23 11:00:00,28.806223,76.141105,so2,1.0,11.0,3.0
india,haryana,charkhi dadri,"mini secretariat, charkhi dadri - hspcb",2026-06-23 11:00:00,28.593883,76.270653,nh3,5.0,8.0,6.0
india,haryana,charkhi dadri,"mini secretariat, charkhi dadri - hspcb",2026-06-23 11:00:00,28.593883,76.270653,so2,10.0,11.0,10.0
india,haryana,dharuhera,"municipal corporation office, dharuhera -  hspcb",2026-06-23 11:00:00,28.2068,76.7997,no2,12.0,62.0,42.0
india,haryana,dharuhera,"municipal corporation office, dharuhera -  hspcb",2026-06-23 11:00:00,28.2068,76.7997,ozone,7.0,54.0,14.0
india,haryana,faridabad,"new industrial town, faridabad - hspcb",2026-06-23 11:00:00,28.39072,77.30059,pm10,90.0,138.0,107.0
india,delhi,delhi,"nsut jaffarpur, delhi - dpcc",2026-06-23 11:00:00,28.594004,76.909423,ozone,2.0,21.0,12.0
india,delhi,delhi,"najafgarh, delhi - dpcc",2026-06-23 11:00:00,28.570173,76.933762,nh3,4.0,6.0,5.0
india,delhi,delhi,"najafgarh, delhi - dpcc",2026-06-23 11:00:00,28.570173,76.933762,co,18.0,53.0,44.0
india,delhi,delhi,"narela, delhi - dpcc",2026-06-23 11:00:00,28.822836,77.101981,pm2.5,20.0,336.0,151.0
india,delhi,delhi,"narela, delhi - dpcc",2026-06-23 11:00:00,28.822836,77.101981,nh3,6.0,8.0,7.0
india,delhi,delhi,"narela, delhi - dpcc",2026-06-23 11:00:00,28.822836,77.101981,so2,9.0,106.0,29.0
india,delhi,delhi,"narela, delhi - dpcc",2026-06-23 11:00:00,28.822836,77.101981,co,25.0,108.0,35.0
india,delhi,delhi,"nehru nagar, delhi - dpcc",2026-06-23 11:00:00,28.56789,77.250515,no2,14.0,78.0,43.0
india,delhi,delhi,"nehru nagar, delhi - dpcc",2026-06-23 11:00:00,28.56789,77.250515,nh3,4.0,6.0,5.0
india,delhi,delhi,"nehru nagar, delhi - dpcc",2026-06-23 11:00:00,28.56789,77.250515,ozone,6.0,60.0,24.0
india,delhi,delhi,"north campus, du, delhi - iitm",2026-06-23 11:00:00,28.6573814,77.1585447,ozone,5.0,89.0,8.0
india,delhi,delhi,"okhla phase-2, delhi - dpcc",2026-06-23 11:00:00,28.530785,77.271255,pm10,97.0,207.0,143.0
india,delhi,delhi,"okhla phase-2, delhi - dpcc",2026-06-23 11:00:00,28.530785,77.271255,ozone,2.0,50.0,18.0
india,delhi,delhi,"patparganj, delhi - dpcc",2026-06-23 11:00:00,28.623763,77.287209,pm10,92.0,216.0,151.0
india,delhi,delhi,"pusa, delhi - dpcc",2026-06-23 11:00:00,28.639652,77.146275,pm10,100.0,315.0,176.0
india,delhi,delhi,"pusa, delhi - dpcc",2026-06-23 11:00:00,28.639652,77.146275,co,58.0,110.0,77.0
india,delhi,delhi,"pusa, delhi - iitm",2026-06-23 11:00:00,28.63611,77.173332,pm2.5,16.0,228.0,76.0
india,gujarat,bhavnagar,"vidhyanagar, bhavnagar - nexteng enviro",2026-06-23 11:00:00,21.755417,72.139056,nh3,3.0,5.0,4.0
india,gujarat,bhavnagar,"vidhyanagar, bhavnagar - nexteng enviro",2026-06-23 11:00:00,21.755417,72.139056,ozone,10.0,35.0,15.0
india,gujarat,gandhinagar,"gift city, gandhinagar - iitm",2026-06-23 11:00:00,23.163798,72.677768,pm2.5,1.0,44.0,9.0
india,gujarat,gandhinagar,"gift city, gandhinagar - iitm",2026-06-23 11:00:00,23.163798,72.677768,pm10,55.0,88.0,72.0
india,gujarat,gandhinagar,"iiphg lekawada, gandhinagar - iitm",2026-06-23 11:00:00,23.243639,72.68994,no2,7.0,11.0,9.0
india,gujarat,gandhinagar,"iiphg lekawada, gandhinagar - iitm",2026-06-23 11:00:00,23.243639,72.68994,nh3,1.0,1.0,1.0
india,gujarat,gandhinagar,"iiphg lekawada, gandhinagar - iitm",2026-06-23 11:00:00,23.243639,72.68994,co,14.0,28.0,16.0
india,gujarat,gandhinagar,"sector-10, gandhinagar - gpcb",2026-06-23 11:00:00,23.221714,72.654328,ozone,4.0,35.0,7.0
india,gujarat,nandesari,"gidc, nandesari - nandesari ind. association",2026-06-23 11:00:00,22.410802,73.097923,no2,4.0,60.0,17.0
india,gujarat,rajkot,"mavdi, rajkot - nexteng enviro",2026-06-23 11:00:00,22.248853,70.776774,pm2.5,25.0,92.0,52.0
india,gujarat,rajkot,"mavdi, rajkot - nexteng enviro",2026-06-23 11:00:00,22.248853,70.776774,pm10,40.0,98.0,69.0
india,gujarat,surat,"katargam, surat - nexteng enviro",2026-06-23 11:00:00,21.217779,72.834787,so2,8.0,9.0,8.0
india,gujarat,surat,"katargam, surat - nexteng enviro",2026-06-23 11:00:00,21.217779,72.834787,ozone,7.0,9.0,7.0
india,gujarat,vadodara,"bapunagar, vadodara - nexteng enviro",2026-06-23 11:00:00,22.320153,73.216285,pm2.5,13.0,161.0,53.0
india,gujarat,ahmedabad,"gyaspur, ahmedabad - iitm",2026-06-23 11:00:00,22.977134,72.553024,so2,8.0,23.0,15.0
india,gujarat,ahmedabad,"maninagar, ahmedabad - gpcb",2026-06-23 11:00:00,23.002657,72.591912,pm2.5,35.0,84.0,55.0
india,gujarat,ahmedabad,"maninagar, ahmedabad - gpcb",2026-06-23 11:00:00,23.002657,72.591912,pm10,53.0,96.0,77.0
india,gujarat,ahmedabad,"rakhial, ahmedabad - iitm",2026-06-23 11:00:00,23.016834,72.625775,pm2.5,31.0,51.0,41.0
india,gujarat,ahmedabad,"sac isro bopal, ahmedabad - iitm",2026-06-23 11:00:00,23.041137,72.456691,pm10,31.0,87.0,56.0
india,gujarat,ahmedabad,"sac isro bopal, ahmedabad - iitm",2026-06-23 11:00:00,23.041137,72.456691,nh3,1.0,3.0,2.0
india,gujarat,ahmedabad,"sac isro bopal, ahmedabad - iitm",2026-06-23 11:00:00,23.041137,72.456691,co,1.0,29.0,26.0
india,gujarat,ahmedabad,"sac isro satellite, ahmedabad - iitm",2026-06-23 11:00:00,23.023389,72.515201,pm10,38.0,97.0,67.0
india,gujarat,ahmedabad,"svpi airport hansol, ahmedabad - iitm",2026-06-23 11:00:00,23.076793,72.627874,co,10.0,27.0,21.0
india,gujarat,ankleshwar,"gidc, ankleshwar - gpcb",2026-06-23 11:00:00,21.613267,73.010555,pm2.5,36.0,85.0,55.0
india,delhi,delhi,"jnu, delhi - dpcc",2026-06-23 11:00:00,28.540721,77.168544,ozone,3.0,45.0,15.0
india,delhi,delhi,"jahangirpuri, delhi - dpcc",2026-06-23 11:00:00,28.73282,77.170633,so2,7.0,36.0,22.0
india,delhi,delhi,"jahangirpuri, delhi - dpcc",2026-06-23 11:00:00,28.73282,77.170633,ozone,11.0,40.0,20.0
india,delhi,delhi,"jawaharlal nehru stadium, delhi - dpcc",2026-06-23 11:00:00,28.58028,77.233829,no2,14.0,97.0,54.0
india,delhi,delhi,"mandir marg, delhi - dpcc",2026-06-23 11:00:00,28.636429,77.201067,pm2.5,3.0,306.0,68.0
india,delhi,delhi,"mandir marg, delhi - dpcc",2026-06-23 11:00:00,28.636429,77.201067,no2,5.0,50.0,25.0
india,delhi,delhi,"mundka, delhi - dpcc",2026-06-23 11:00:00,28.684678,77.076574,nh3,4.0,8.0,6.0
india,delhi,delhi,"nsit dwarka, delhi - cpcb",2026-06-23 11:00:00,28.60909,77.0325413,co,29.0,96.0,43.0
india,delhi,delhi,"r k puram, delhi - dpcc",2026-06-23 11:00:00,28.563262,77.186937,so2,1.0,126.0,38.0
india,delhi,delhi,"r k puram, delhi - dpcc",2026-06-23 11:00:00,28.563262,77.186937,co,16.0,44.0,31.0
india,delhi,delhi,"r k puram, delhi - dpcc",2026-06-23 11:00:00,28.563262,77.186937,ozone,1.0,57.0,33.0
india,delhi,delhi,"shadipur, delhi - cpcb",2026-06-23 11:00:00,28.6514781,77.1473105,nh3,6.0,9.0,7.0
india,delhi,delhi,"sirifort, delhi - cpcb",2026-06-23 11:00:00,28.5504249,77.2159377,pm2.5,40.0,262.0,130.0
india,delhi,delhi,"wazirpur, delhi - dpcc",2026-06-23 11:00:00,28.699793,77.165453,nh3,4.0,6.0,5.0
india,delhi,delhi,"wazirpur, delhi - dpcc",2026-06-23 11:00:00,28.699793,77.165453,so2,11.0,22.0,15.0
india,gujarat,ahmedabad,"chandkheda, ahmedabad - iitm",2026-06-23 11:00:00,23.107969,72.574648,pm10,43.0,123.0,71.0
india,haryana,faridabad,"sector 30, faridabad - hspcb",2026-06-23 11:00:00,28.4417,77.3217,ozone,1.0,24.0,11.0
india,haryana,gurugram,"nise gwal pahari, gurugram - iitm",2026-06-23 11:00:00,28.422681,77.148944,co,47.0,68.0,62.0
india,haryana,gurugram,"nise gwal pahari, gurugram - iitm",2026-06-23 11:00:00,28.422681,77.148944,ozone,12.0,111.0,91.0
india,haryana,gurugram,"sector-51, gurugram - hspcb",2026-06-23 11:00:00,28.4227,77.0667,co,2.0,38.0,30.0
india,haryana,gurugram,"teri gram, gurugram - hspcb",2026-06-23 11:00:00,28.4275,77.1465,nh3,11.0,17.0,14.0
india,haryana,hisar,"urban estate-ii, hisar - hspcb",2026-06-23 11:00:00,29.14056,75.744941,no2,26.0,27.0,27.0
india,haryana,hisar,"urban estate-ii, hisar - hspcb",2026-06-23 11:00:00,29.14056,75.744941,so2,9.0,21.0,17.0
india,haryana,hisar,"urban estate-ii, hisar - hspcb",2026-06-23 11:00:00,29.14056,75.744941,co,48.0,72.0,66.0
india,haryana,jind,"police lines, jind - hspcb",2026-06-23 11:00:00,29.307814,76.337619,pm10,49.0,99.0,67.0
india,haryana,jind,"police lines, jind - hspcb",2026-06-23 11:00:00,29.307814,76.337619,nh3,13.0,15.0,14.0
india,haryana,jind,"police lines, jind - hspcb",2026-06-23 11:00:00,29.307814,76.337619,co,1.0,132.0,27.0
india,haryana,kaithal,"rishi nagar, kaithal - hspcb",2026-06-23 11:00:00,29.8006,76.4155,no2,40.0,44.0,42.0
india,haryana,kaithal,"rishi nagar, kaithal - hspcb",2026-06-23 11:00:00,29.8006,76.4155,ozone,8.0,21.0,15.0
india,haryana,mandikhera,"general hospital, mandikhera(nuh) - hspcb",2026-06-23 11:00:00,27.9002,76.9938,pm10,29.0,70.0,48.0
india,haryana,narnaul,"shastri nagar, narnaul - hspcb",2026-06-23 11:00:00,28.060249,76.113115,co,22.0,32.0,29.0
india,delhi,delhi,"dwarka-sector 8, delhi - dpcc",2026-06-23 11:00:00,28.5710274,77.0719006,pm2.5,15.0,333.0,126.0
india,delhi,delhi,"dwarka-sector 8, delhi - dpcc",2026-06-23 11:00:00,28.5710274,77.0719006,pm10,116.0,341.0,187.0
india,delhi,delhi,"dwarka-sector 8, delhi - dpcc",2026-06-23 11:00:00,28.5710274,77.0719006,co,23.0,64.0,41.0
india,delhi,delhi,"ihbas, dilshad garden, delhi - cpcb",2026-06-23 11:00:00,28.6811736,77.3025234,pm2.5,70.0,257.0,134.0
india,delhi,delhi,"ihbas, dilshad garden, delhi - cpcb",2026-06-23 11:00:00,28.6811736,77.3025234,co,29.0,57.0,33.0
india,delhi,delhi,"iit delhi, delhi - iitm",2026-06-23 11:00:00,28.54246,77.191651,pm2.5,21.0,232.0,78.0
india,delhi,delhi,"iit delhi, delhi - iitm",2026-06-23 11:00:00,28.54246,77.191651,no2,6.0,19.0,12.0
india,karnataka,hubballi,"lingaraj nagar, hubballi - kspcb",2026-06-23 11:00:00,15.3714823,75.1160168,no2,7.0,9.0,7.0
india,karnataka,koppal,"diwator nagar, koppal - kspcb",2026-06-23 11:00:00,15.34763,76.181767,no2,15.0,38.0,28.0
india,karnataka,koppal,"diwator nagar, koppal - kspcb",2026-06-23 11:00:00,15.34763,76.181767,ozone,24.0,52.0,34.0
india,karnataka,madikeri,"stuart hill, madikeri - kspcb",2026-06-23 11:00:00,12.415911,75.73505,pm2.5,2.0,20.0,10.0
india,karnataka,madikeri,"stuart hill, madikeri - kspcb",2026-06-23 11:00:00,12.415911,75.73505,pm10,4.0,18.0,10.0
india,karnataka,mysuru,"hebbal 1st stage, mysuru - kspcb",2026-06-23 11:00:00,12.21041,76.37376,pm2.5,5.0,30.0,13.0
india,karnataka,mysuru,"hebbal 1st stage, mysuru - kspcb",2026-06-23 11:00:00,12.21041,76.37376,nh3,2.0,6.0,4.0
india,karnataka,mysuru,"hebbal 1st stage, mysuru - kspcb",2026-06-23 11:00:00,12.21041,76.37376,co,4.0,28.0,6.0
india,karnataka,mysuru,"hebbal 1st stage, mysuru - kspcb",2026-06-23 11:00:00,12.21041,76.37376,ozone,5.0,58.0,15.0
india,karnataka,ramanagara,"vijay nagar, ramanagara - kspcb",2026-06-23 11:00:00,12.733409,77.298051,co,18.0,38.0,26.0
india,karnataka,ramanagara,"vijay nagar, ramanagara - kspcb",2026-06-23 11:00:00,12.733409,77.298051,ozone,14.0,39.0,18.0
india,karnataka,shivamogga,"vinoba nagara, shivamogga - kspcb",2026-06-23 11:00:00,13.94,75.555917,pm2.5,19.0,47.0,26.0
india,karnataka,shivamogga,"vinoba nagara, shivamogga - kspcb",2026-06-23 11:00:00,13.94,75.555917,no2,18.0,26.0,23.0
india,karnataka,shivamogga,"vinoba nagara, shivamogga - kspcb",2026-06-23 11:00:00,13.94,75.555917,nh3,2.0,4.0,3.0
india,karnataka,tumakuru,"thimmalapura, tumakuru - kspcb",2026-06-23 11:00:00,13.377516,77.099072,nh3,3.0,3.0,3.0
india,karnataka,tumakuru,"thimmalapura, tumakuru - kspcb",2026-06-23 11:00:00,13.377516,77.099072,co,52.0,55.0,54.0
